kodim_id,korem_id,kodam_id,kodam,korem,name,address,lat,lng,kecamatan,kabupaten_kota,kecamatan_lat,kecamatan_lng
KODIM-001,KOREM-001,KODAM-01,Kodam I/Bukit Barisan,Berdiri Sendiri,Kodim 0201/Medan,"Jl. Pengadilan No. 8, Medan 20151",3.5880613,98.6728967,Medan Petisah,Kota Medan,3.5880613,98.6728967
KODIM-002,KOREM-002,KODAM-01,Kodam I/Bukit Barisan,Korem 022/Pantai Timur,Kodim 0203/Binjai,"Jl. Veteran No.100, Binjai 20714",3.6027793,98.4825962,Binjai Kota,Kota Binjai,3.6027793,98.4825962
KODIM-003,KOREM-002,KODAM-01,Kodam I/Bukit Barisan,Korem 022/Pantai Timur,Kodim 0204/Lubuk Pakam,"Jl. Besar Galang, Lubuk Pakam 20517",3.53977,98.8820337,Lubuk Pakam,Kabupaten Deli Serdang,3.53977,98.8820337
KODIM-004,KOREM-002,KODAM-01,Kodam I/Bukit Barisan,Korem 022/Pantai Timur,Kodim 0207/Simalungun,"Jl. Asahan Km. 6, Pematang Siantar 21151",2.9630722,99.1223471,Siantar,Kabupaten Simalungun,2.9630722,99.1223471
KODIM-005,KOREM-002,KODAM-01,Kodam I/Bukit Barisan,Korem 022/Pantai Timur,Kodim 0208/Asahan,"Jl. Sudirman, Kisaran 21216",2.991649,99.6124692,Kota Kisaran Timur,Kabupaten Asahan,2.991649,99.6124692
KODIM-006,KOREM-002,KODAM-01,Kodam I/Bukit Barisan,Korem 022/Pantai Timur,Kodim 0209/Labuhan Batu,"Jl. Pramuka 14, Rantau Prapat 21411",2.1156825,99.8229627,Rantau Utara,Kabupaten Labuhanbatu,2.1156825,99.8229627
KODIM-007,KOREM-003,KODAM-01,Kodam I/Bukit Barisan,Korem 023/Kawal Samudera,Kodim 0205/Tanah Karo,"Jl. Jamin Ginting, Kabanjahe 22151",3.1505505,98.5070789,Berastagi,Kabupaten Karo,3.1505505,98.5070789
KODIM-008,KOREM-003,KODAM-01,Kodam I/Bukit Barisan,Korem 023/Kawal Samudera,Kodim 0206/Dairi,"Jl. Sisingamangaraja No. 127, Sidikalang 22212",2.7490143,98.312163,Sidikalang,Kabupaten Dairi,2.7490143,98.312163
KODIM-009,KOREM-003,KODAM-01,Kodam I/Bukit Barisan,Korem 023/Kawal Samudera,Kodim 0210/Tarutung,"Jl. Suprapto, Tarutung 22411",2.0241321,98.9584609,Tarutung,Kabupaten Tapanuli Utara,2.0241321,98.9584609
KODIM-010,KOREM-003,KODAM-01,Kodam I/Bukit Barisan,Korem 023/Kawal Samudera,Kodim 0211/Sibolga,"Jl. Sisingamangaraja, Sibolga 22537",1.727273,98.8008753,Sibolga Selatan,Kota Sibolga,1.727273,98.8008753
KODIM-011,KOREM-003,KODAM-01,Kodam I/Bukit Barisan,Korem 023/Kawal Samudera,Kodim 0212/Padang Sidempuan,"Jl. Tapian Nauli, Padang Sidempuan 22727",1.3651669,99.2839327,Padangsidimpuan Selatan,Kota Padangsidimpuan,1.3651669,99.2839327
KODIM-012,KOREM-003,KODAM-01,Kodam I/Bukit Barisan,Korem 023/Kawal Samudera,Kodim 0213/Gunung Sitoli,"Jl. Gunung Sitoli, Gunung Sitoli 22813",1.29071,97.6134,Gunungsitoli,Kota Gunungsitoli,1.29071,97.6134
KODIM-013,KOREM-004,KODAM-02,Kodam II/Sriwijaya,Berdiri Sendiri,Kodim 0418/Palembang,"Makodim Kodim 0418/Palembang, Palembang",-2.9540978,104.7866913,Ilir Timur Dua,Kota Palembang,-2.9540978,104.7866913
KODIM-014,KOREM-005,KODAM-02,Kodam II/Sriwijaya,Korem 044/Garuda Dempo,Kodim 0401/Musi Banyuasin,"Jl. Wahid Udin, Sekayu 30711",-2.8916392,103.8418646,Sekayu,Kabupaten Musi Banyuasin,-2.8916392,103.8418646
KODIM-015,KOREM-005,KODAM-02,Kodam II/Sriwijaya,Korem 044/Garuda Dempo,Kodim 0402/Ogan Komering Ilir,"Jl. Kayu Agung 12, OKI 30651",-3.378367,104.8298987,Kayu Agung,Kabupaten Ogan Komering Ilir,-3.378367,104.8298987
KODIM-016,KOREM-005,KODAM-02,Kodam II/Sriwijaya,Korem 044/Garuda Dempo,Kodim 0403/Ogan Komering Ulu,"Jl. Jend. A. Yani, Baturaja 32115",-4.1610042,104.1914221,Baturaja Timur,Kabupaten Ogan Komering Ulu,-4.1610042,104.1914221
KODIM-017,KOREM-005,KODAM-02,Kodam II/Sriwijaya,Korem 044/Garuda Dempo,Kodim 0404/Muara Enim,"Jl. Muara Enim, Muara Enim 31314",-3.6538167,103.7769038,Muara Enim,Kabupaten Muara Enim,-3.6538167,103.7769038
KODIM-018,KOREM-005,KODAM-02,Kodam II/Sriwijaya,Korem 044/Garuda Dempo,Kodim 0405/Lahat,"Makodim Kodim 0405/Lahat, Lahat",-3.7793324,103.5424559,Lahat,Kabupaten Lahat,-3.7793324,103.5424559
KODIM-019,KOREM-005,KODAM-02,Kodam II/Sriwijaya,Korem 044/Garuda Dempo,Kodim 0406/Musi Rawas,"Makodim Kodim 0406/Musi Rawas, Musi Rawas",-3.3120677,102.8424674,Lubuk Linggau Barat I,Kota Lubuk Linggau,-3.3120677,102.8424674
KODIM-020,KOREM-005,KODAM-02,Kodam II/Sriwijaya,Korem 044/Garuda Dempo,Kodim 0430/Banyuasin,"Makodim Kodim 0430/Banyuasin, Banyuasin",-2.9126645,104.4083485,Banyuasin III,Kabupaten Banyuasin,-2.9126645,104.4083485
KODIM-021,KOREM-006,KODAM-02,Kodam II/Sriwijaya,Korem 045/Garuda Jaya,Kodim 0413/Bangka,"Makodim Kodim 0413/Bangka, Bangka",-2.1401674,106.1036094,Rangkui,Kota Pangkal Pinang,-2.1401674,106.1036094
KODIM-022,KOREM-006,KODAM-02,Kodam II/Sriwijaya,Korem 045/Garuda Jaya,Kodim 0414/Belitung,"Makodim Kodim 0414/Belitung, Belitung",-2.7433815,107.6369169,Tanjungpandan,Kabupaten Belitung,-2.7433815,107.6369169
KODIM-023,KOREM-006,KODAM-02,Kodam II/Sriwijaya,Korem 045/Garuda Jaya,Kodim 0431/Bangka Selatan,"Makodim Kodim 0431/Bangka Selatan, Bangka Selatan",-2.9131485,106.4665603,Airgegas,Kabupaten Bangka Selatan,-2.9131485,106.4665603
KODIM-024,KOREM-006,KODAM-02,Kodam II/Sriwijaya,Korem 045/Garuda Jaya,Kodim 0432/Bangka Barat,"Makodim Kodim 0432/Bangka Barat, Bangka Barat",-2.054358,105.197193,Mentok,Kabupaten Bangka Barat,-2.054358,105.197193
KODIM-025,KOREM-007,KODAM-03,Kodam III/Siliwangi,Berdiri Sendiri,Kodim 0618/Bandung,"Makodim Kodim 0618/Bandung, Bandung",-6.9156224,107.6192912,Sumur Bandung,Kota Bandung,-6.9156224,107.6192912
KODIM-026,KOREM-008,KODAM-03,Kodam III/Siliwangi,Korem 061/Surya Kencana,Kodim 0606/Bogor,"Makodim Kodim 0606/Bogor, Bogor",-6.5867384,106.7965451,Bogor Tengah,Kota Bogor,-6.5867384,106.7965451
KODIM-027,KOREM-008,KODAM-03,Kodam III/Siliwangi,Korem 061/Surya Kencana,Kodim 0607/Sukabumi,"Makodim Kodim 0607/Sukabumi, Sukabumi",-6.9191971,106.9547763,Sukaraja,Kabupaten Sukabumi,-6.9191971,106.9547763
KODIM-028,KOREM-008,KODAM-03,Kodam III/Siliwangi,Korem 061/Surya Kencana,Kodim 0608/Cianjur,"Makodim Kodim 0608/Cianjur, Cianjur",-6.8277121,107.1363789,Cianjur,Kabupaten Cianjur,-6.8277121,107.1363789
KODIM-029,KOREM-008,KODAM-03,Kodam III/Siliwangi,Korem 061/Surya Kencana,Kodim 0621/Cibinong,"Makodim Kodim 0621/Cibinong, Cibinong",-6.4812944,106.8239753,Cibinong,Kabupaten Bogor,-6.4812944,106.8239753
KODIM-030,KOREM-008,KODAM-03,Kodam III/Siliwangi,Korem 061/Surya Kencana,Kodim 0622/Palabuhanratu,"Makodim Kodim 0622/Palabuhanratu, Palabuhanratu",-6.9596626,106.5548005,Palabuhanratu,Kabupaten Sukabumi,-6.9596626,106.5548005
KODIM-031,KOREM-009,KODAM-03,Kodam III/Siliwangi,Korem 062/Tarumanagara,Kodim 0609/Cimahi,"Makodim Kodim 0609/Cimahi, Cimahi",-6.8797627,107.543859,Cimahi Tengah,Kota Cimahi,-6.8797627,107.543859
KODIM-032,KOREM-009,KODAM-03,Kodam III/Siliwangi,Korem 062/Tarumanagara,Kodim 0610/Sumedang,"Makodim Kodim 0610/Sumedang, Sumedang",-6.8637662,107.9083597,Sumedang Selatan,Kabupaten Sumedang,-6.8637662,107.9083597
KODIM-033,KOREM-009,KODAM-03,Kodam III/Siliwangi,Korem 062/Tarumanagara,Kodim 0611/Garut,"Makodim Kodim 0611/Garut, Garut",-7.2144045,107.9048362,Karangpawitan,Kabupaten Garut,-7.2144045,107.9048362
KODIM-034,KOREM-009,KODAM-03,Kodam III/Siliwangi,Korem 062/Tarumanagara,Kodim 0612/Tasikmalaya,"Makodim Kodim 0612/Tasikmalaya, Tasikmalaya",-7.3261464,108.2221913,Tawang,Kota Tasikmalaya,-7.3261464,108.2221913
KODIM-035,KOREM-009,KODAM-03,Kodam III/Siliwangi,Korem 062/Tarumanagara,Kodim 0613/Ciamis,"Makodim Kodim 0613/Ciamis, Ciamis",-7.3261209,108.3687234,Ciamis,Kabupaten Ciamis,-7.3261209,108.3687234
KODIM-036,KOREM-009,KODAM-03,Kodam III/Siliwangi,Korem 062/Tarumanagara,Kodim 0624/Soreang,"Makodim Kodim 0624/Soreang, Soreang",-6.9822729,107.5329211,Kutawaringin,Kabupaten Bandung,-6.9822729,107.5329211
KODIM-037,KOREM-009,KODAM-03,Kodam III/Siliwangi,Korem 062/Tarumanagara,Kodim 0625/Pangandaran,"Makodim Kodim 0625/Pangandaran, Pangandaran",-7.654429,108.4802404,Parigi,Kabupaten Pangandaran,-7.654429,108.4802404
KODIM-038,KOREM-010,KODAM-03,Kodam III/Siliwangi,Korem 063/Sunan Gunung Jati,Kodim 0604/Karawang,"Makodim Kodim 0604/Karawang, Karawang",-6.3004024,107.3047828,Karawang Barat,Kabupaten Karawang,-6.3004024,107.3047828
KODIM-039,KOREM-010,KODAM-03,Kodam III/Siliwangi,Korem 063/Sunan Gunung Jati,Kodim 0605/Subang,"Makodim Kodim 0605/Subang, Subang",-6.5578165,107.7648959,Subang,Kabupaten Subang,-6.5578165,107.7648959
KODIM-040,KOREM-010,KODAM-03,Kodam III/Siliwangi,Korem 063/Sunan Gunung Jati,Kodim 0614/Cirebon,"Makodim Kodim 0614/Cirebon, Cirebon",-6.7299006,108.5448461,Kesambi,Kota Cirebon,-6.7299006,108.5448461
KODIM-041,KOREM-010,KODAM-03,Kodam III/Siliwangi,Korem 063/Sunan Gunung Jati,Kodim 0615/Kuningan,"Makodim Kodim 0615/Kuningan, Kuningan",-6.9695678,108.4999999,Kuningan,Kabupaten Kuningan,-6.9695678,108.4999999
KODIM-042,KOREM-010,KODAM-03,Kodam III/Siliwangi,Korem 063/Sunan Gunung Jati,Kodim 0616/Indramayu,"Makodim Kodim 0616/Indramayu, Indramayu",-6.3515523,108.3252074,Indramayu,Kabupaten Indramayu,-6.3515523,108.3252074
KODIM-043,KOREM-010,KODAM-03,Kodam III/Siliwangi,Korem 063/Sunan Gunung Jati,Kodim 0617/Majalengka,"Makodim Kodim 0617/Majalengka, Majalengka",-6.8333826,108.2409627,Majalengka,Kabupaten Majalengka,-6.8333826,108.2409627
KODIM-044,KOREM-010,KODAM-03,Kodam III/Siliwangi,Korem 063/Sunan Gunung Jati,Kodim 0619/Purwakarta,"Makodim Kodim 0619/Purwakarta, Purwakarta",-6.559501,107.447528,Purwakarta,Kabupaten Purwakarta,-6.559501,107.447528
KODIM-045,KOREM-010,KODAM-03,Kodam III/Siliwangi,Korem 063/Sunan Gunung Jati,Kodim 0620/Sumber,"Makodim Kodim 0620/Sumber, Sumber",-6.7512116,108.4894628,Sumber,Kabupaten Cirebon,-6.7512116,108.4894628
KODIM-046,KOREM-011,KODAM-03,Kodam III/Siliwangi,Korem 064/Maulana Yusuf,Kodim 0601/Pandeglang,"Makodim Kodim 0601/Pandeglang, Pandeglang",-6.3083074,106.1055349,Pandeglang,Kabupaten Pandeglang,-6.3083074,106.1055349
KODIM-047,KOREM-011,KODAM-03,Kodam III/Siliwangi,Korem 064/Maulana Yusuf,Kodim 0602/Serang,"Makodim Kodim 0602/Serang, Serang",-6.1638804,106.1546173,Cipocok Jaya,Kota Serang,-6.1638804,106.1546173
KODIM-048,KOREM-011,KODAM-03,Kodam III/Siliwangi,Korem 064/Maulana Yusuf,Kodim 0603/Lebak,"Makodim Kodim 0603/Lebak, Lebak",-6.3556879,106.2504165,Rangkasbitung,Kabupaten Lebak,-6.3556879,106.2504165
KODIM-049,KOREM-011,KODAM-03,Kodam III/Siliwangi,Korem 064/Maulana Yusuf,Kodim 0623/Cilegon,"Makodim Kodim 0623/Cilegon, Cilegon",-6.0093543,106.0413095,Purwakarta,Kota Cilegon,-6.0093543,106.0413095
KODIM-050,KOREM-012,KODAM-04,Kodam IV/Diponegoro,Berdiri Sendiri,Kodim 0733/Semarang,"Makodim Kodim 0733/Semarang, Semarang",-6.981602,110.412092,Semarang Tengah,Kota Semarang,-6.981602,110.412092
KODIM-051,KOREM-013,KODAM-04,Kodam IV/Diponegoro,Korem 071/Wijayakusuma,Kodim 0701/Purwokerto,"Makodim Kodim 0701/Purwokerto, Purwokerto",-7.4243484,109.2258227,Purwokerto Barat,Kabupaten Banyumas,-7.4243484,109.2258227
KODIM-052,KOREM-013,KODAM-04,Kodam IV/Diponegoro,Korem 071/Wijayakusuma,Kodim 0702/Purbalingga,"Makodim Kodim 0702/Purbalingga, Purbalingga",-7.3913714,109.3742052,Purbalingga,Kabupaten Purbalingga,-7.3913714,109.3742052
KODIM-053,KOREM-013,KODAM-04,Kodam IV/Diponegoro,Korem 071/Wijayakusuma,Kodim 0703/Cilacap,"Makodim Kodim 0703/Cilacap, Cilacap",-7.7281046,109.0080857,Cilacap Selatan,Kabupaten Cilacap,-7.7281046,109.0080857
KODIM-054,KOREM-013,KODAM-04,Kodam IV/Diponegoro,Korem 071/Wijayakusuma,Kodim 0704/Banjarnegara,"Makodim Kodim 0704/Banjarnegara, Banjarnegara",-7.3973879,109.6960006,Banjarnegara,Kabupaten Banjarnegara,-7.3973879,109.6960006
KODIM-055,KOREM-013,KODAM-04,Kodam IV/Diponegoro,Korem 071/Wijayakusuma,Kodim 0710/Pekalongan,"Makodim Kodim 0710/Pekalongan, Pekalongan",-6.8970543,109.6597597,Pekalongan Barat,Kota Pekalongan,-6.8970543,109.6597597
KODIM-056,KOREM-013,KODAM-04,Kodam IV/Diponegoro,Korem 071/Wijayakusuma,Kodim 0711/Pemalang,"Makodim Kodim 0711/Pemalang, Pemalang",-6.8768009,109.3758817,Pemalang,Kabupaten Pemalang,-6.8768009,109.3758817
KODIM-057,KOREM-013,KODAM-04,Kodam IV/Diponegoro,Korem 071/Wijayakusuma,Kodim 0712/Tegal,"Makodim Kodim 0712/Tegal, Tegal",-6.9051615,109.1337389,Dukuhturi,Kabupaten Tegal,-6.9051615,109.1337389
KODIM-058,KOREM-013,KODAM-04,Kodam IV/Diponegoro,Korem 071/Wijayakusuma,Kodim 0713/Brebes,"Makodim Kodim 0713/Brebes, Brebes",-6.8738733,109.0420757,Brebes,Kabupaten Brebes,-6.8738733,109.0420757
KODIM-059,KOREM-013,KODAM-04,Kodam IV/Diponegoro,Korem 071/Wijayakusuma,Kodim 0736/Batang,"Makodim Kodim 0736/Batang, Batang",-6.9067637,109.729104,Batang,Kabupaten Batang,-6.9067637,109.729104
KODIM-060,KOREM-014,KODAM-04,Kodam IV/Diponegoro,Korem 072/Pamungkas,Kodim 0705/Magelang,"Makodim Kodim 0705/Magelang, Magelang",-7.4663404,110.2217267,Magelang Utara,Kota Magelang,-7.4663404,110.2217267
KODIM-061,KOREM-014,KODAM-04,Kodam IV/Diponegoro,Korem 072/Pamungkas,Kodim 0706/Temanggung,"Makodim Kodim 0706/Temanggung, Temanggung",-7.3134861,110.1787696,Temanggung,Kabupaten Temanggung,-7.3134861,110.1787696
KODIM-062,KOREM-014,KODAM-04,Kodam IV/Diponegoro,Korem 072/Pamungkas,Kodim 0707/Wonosobo,"Makodim Kodim 0707/Wonosobo, Wonosobo",-7.3579992,109.9019801,Wonosobo,Kabupaten Wonosobo,-7.3579992,109.9019801
KODIM-063,KOREM-014,KODAM-04,Kodam IV/Diponegoro,Korem 072/Pamungkas,Kodim 0708/Purworejo,"Makodim Kodim 0708/Purworejo, Purworejo",-7.7156548,110.0095367,Purworejo,Kabupaten Purworejo,-7.7156548,110.0095367
KODIM-064,KOREM-014,KODAM-04,Kodam IV/Diponegoro,Korem 072/Pamungkas,Kodim 0709/Kebumen,"Makodim Kodim 0709/Kebumen, Kebumen",-7.6968674,109.6807288,Kebumen,Kabupaten Kebumen,-7.6968674,109.6807288
KODIM-065,KOREM-014,KODAM-04,Kodam IV/Diponegoro,Korem 072/Pamungkas,Kodim 0729/Bantul,"Makodim Kodim 0729/Bantul, Bantul",-7.8804952,110.3346881,Bantul,Kabupaten Bantul,-7.8804952,110.3346881
KODIM-066,KOREM-014,KODAM-04,Kodam IV/Diponegoro,Korem 072/Pamungkas,Kodim 0730/Gunung Kidul,"Makodim Kodim 0730/Gunung Kidul, Gunung Kidul",-7.9637685,110.6063559,Wonosari,Kabupaten Gunungkidul,-7.9637685,110.6063559
KODIM-067,KOREM-014,KODAM-04,Kodam IV/Diponegoro,Korem 072/Pamungkas,Kodim 0731/Kulon Progo,"Makodim Kodim 0731/Kulon Progo, Kulon Progo",-7.8570688,110.1577556,Wates,Kabupaten Kulon Progo,-7.8570688,110.1577556
KODIM-068,KOREM-014,KODAM-04,Kodam IV/Diponegoro,Korem 072/Pamungkas,Kodim 0732/Sleman,"Makodim Kodim 0732/Sleman, Sleman",-7.6828865,110.3399671,Sleman,Kabupaten Sleman,-7.6828865,110.3399671
KODIM-069,KOREM-014,KODAM-04,Kodam IV/Diponegoro,Korem 072/Pamungkas,Kodim 0734/Yogyakarta,"Makodim Kodim 0734/Yogyakarta, Yogyakarta",-7.774612,110.3676874,Jetis,Kota Yogyakarta,-7.774612,110.3676874
KODIM-070,KOREM-015,KODAM-04,Kodam IV/Diponegoro,Korem 073/Makutarama,Kodim 0714/Salatiga,"Makodim Kodim 0714/Salatiga, Salatiga",-7.3224239,110.500573,Sidorejo,Kota Salatiga,-7.3224239,110.500573
KODIM-071,KOREM-015,KODAM-04,Kodam IV/Diponegoro,Korem 073/Makutarama,Kodim 0715/Kendal,"Makodim Kodim 0715/Kendal, Kendal",-6.9205428,110.1969756,Kendal,Kabupaten Kendal,-6.9205428,110.1969756
KODIM-072,KOREM-015,KODAM-04,Kodam IV/Diponegoro,Korem 073/Makutarama,Kodim 0716/Demak,"Makodim Kodim 0716/Demak, Demak",-6.8912244,110.6400657,Demak,Kabupaten Demak,-6.8912244,110.6400657
KODIM-073,KOREM-015,KODAM-04,Kodam IV/Diponegoro,Korem 073/Makutarama,Kodim 0717/Grobogan,"Makodim Kodim 0717/Grobogan, Grobogan",-7.0797832,110.9158682,Purwodadi,Kabupaten Grobogan,-7.0797832,110.9158682
KODIM-074,KOREM-015,KODAM-04,Kodam IV/Diponegoro,Korem 073/Makutarama,Kodim 0718/Pati,"Makodim Kodim 0718/Pati, Pati",-6.7513005,111.0337842,Pati,Kabupaten Pati,-6.7513005,111.0337842
KODIM-075,KOREM-015,KODAM-04,Kodam IV/Diponegoro,Korem 073/Makutarama,Kodim 0719/Jepara,"Makodim Kodim 0719/Jepara, Jepara",-6.5888255,110.6667205,Jepara,Kabupaten Jepara,-6.5888255,110.6667205
KODIM-076,KOREM-015,KODAM-04,Kodam IV/Diponegoro,Korem 073/Makutarama,Kodim 0720/Rembang,"Makodim Kodim 0720/Rembang, Rembang",-6.7044283,111.3413458,Rembang,Kabupaten Rembang,-6.7044283,111.3413458
KODIM-077,KOREM-015,KODAM-04,Kodam IV/Diponegoro,Korem 073/Makutarama,Kodim 0721/Blora,"Makodim Kodim 0721/Blora, Blora",-6.9711673,111.4205496,Blora,Kabupaten Blora,-6.9711673,111.4205496
KODIM-078,KOREM-015,KODAM-04,Kodam IV/Diponegoro,Korem 073/Makutarama,Kodim 0722/Kudus,"Makodim Kodim 0722/Kudus, Kudus",-6.8063661,110.8457365,Kota Kudus,Kabupaten Kudus,-6.8063661,110.8457365
KODIM-079,KOREM-016,KODAM-04,Kodam IV/Diponegoro,Korem 074/Warastratama,Kodim 0723/Klaten,"Makodim Kodim 0723/Klaten, Klaten",-7.7075107,110.5983631,Klaten Tengah,Kabupaten Klaten,-7.7075107,110.5983631
KODIM-080,KOREM-016,KODAM-04,Kodam IV/Diponegoro,Korem 074/Warastratama,Kodim 0724/Boyolali,"Makodim Kodim 0724/Boyolali, Boyolali",-7.5386664,110.6149616,Boyolali,Kabupaten Boyolali,-7.5386664,110.6149616
KODIM-081,KOREM-016,KODAM-04,Kodam IV/Diponegoro,Korem 074/Warastratama,Kodim 0725/Sragen,"Makodim Kodim 0725/Sragen, Sragen",-7.4299763,111.0073775,Sragen,Kabupaten Sragen,-7.4299763,111.0073775
KODIM-082,KOREM-016,KODAM-04,Kodam IV/Diponegoro,Korem 074/Warastratama,Kodim 0726/Sukoharjo,"Makodim Kodim 0726/Sukoharjo, Sukoharjo",-7.6781553,110.8385951,Sukoharjo,Kabupaten Sukoharjo,-7.6781553,110.8385951
KODIM-083,KOREM-016,KODAM-04,Kodam IV/Diponegoro,Korem 074/Warastratama,Kodim 0727/Karanganyar,"Makodim Kodim 0727/Karanganyar, Karanganyar",-7.593523,110.939477,Karanganyar,Kabupaten Karanganyar,-7.593523,110.939477
KODIM-084,KOREM-016,KODAM-04,Kodam IV/Diponegoro,Korem 074/Warastratama,Kodim 0728/Wonogiri,"Makodim Kodim 0728/Wonogiri, Wonogiri",-7.818807,110.922962,Wonogiri,Kabupaten Wonogiri,-7.818807,110.922962
KODIM-085,KOREM-016,KODAM-04,Kodam IV/Diponegoro,Korem 074/Warastratama,Kodim 0735/Surakarta,"Makodim Kodim 0735/Surakarta, Surakarta",-7.5550469,110.7989676,Laweyan,Kota Surakarta,-7.5550469,110.7989676
KODIM-086,KOREM-017,KODAM-05,Kodam IX/Udayana,Korem 161/Wira Sakti,Kodim 1601/Waingapu,"Makodim Kodim 1601/Waingapu, Waingapu",-9.644938,120.2549687,Paga,Kabupaten Sikka,-9.644938,120.2549687
KODIM-087,KOREM-017,KODAM-05,Kodam IX/Udayana,Korem 161/Wira Sakti,Kodim 1602/Ende,"Makodim Kodim 1602/Ende, Ende",-8.8421678,121.6437203,Ende Utara,Kabupaten Ende,-8.8421678,121.6437203
KODIM-088,KOREM-017,KODAM-05,Kodam IX/Udayana,Korem 161/Wira Sakti,Kodim 1603/Maumere,"Makodim Kodim 1603/Maumere, Maumere",-8.627063,122.2320026,Alok Timur,Kabupaten Sikka,-8.627063,122.2320026
KODIM-089,KOREM-017,KODAM-05,Kodam IX/Udayana,Korem 161/Wira Sakti,Kodim 1604/Kupang,"Makodim Kodim 1604/Kupang, Kupang",-10.1669,123.583,Kota Raja,Kota Kupang,-10.1669,123.583
KODIM-090,KOREM-017,KODAM-05,Kodam IX/Udayana,Korem 161/Wira Sakti,Kodim 1605/Belu,"Makodim Kodim 1605/Belu, Belu",-9.1005001,124.8990077,Kota Atambua,Kabupaten Belu,-9.1005001,124.8990077
KODIM-091,KOREM-017,KODAM-05,Kodam IX/Udayana,Korem 161/Wira Sakti,Kodim 1612/Ruteng,"Makodim Kodim 1612/Ruteng, Ruteng",-8.6081362,120.4699561,Teluk Mutiara,Kabupaten Alor,-8.6081362,120.4699561
KODIM-092,KOREM-017,KODAM-05,Kodam IX/Udayana,Korem 161/Wira Sakti,Kodim 1613/Sumba Barat,"Makodim Kodim 1613/Sumba Barat, Sumba Barat",-9.6369253,119.4114009,Kota Waikabubak,Kabupaten Sumba Barat,-9.6369253,119.4114009
KODIM-093,KOREM-017,KODAM-05,Kodam IX/Udayana,Korem 161/Wira Sakti,Kodim 1618/Kefamenanu,"Makodim Kodim 1618/Kefamenanu, Kefamenanu",-9.4635543,124.4837777,Kota Kefamenanu,Kabupaten Timor Tengah Utara,-9.4635543,124.4837777
KODIM-094,KOREM-017,KODAM-05,Kodam IX/Udayana,Korem 161/Wira Sakti,Kodim 1621/Timor Tengah Selatan,"Makodim Kodim 1621/Timor Tengah Selatan, Timor Tengah Selatan",-9.863518,124.2593008,Kota Soe,Kabupaten Timor Tengah Selatan,-9.863518,124.2593008
KODIM-095,KOREM-017,KODAM-05,Kodam IX/Udayana,Korem 161/Wira Sakti,Kodim 1622/Kalabahi,"Makodim Kodim 1622/Kalabahi, Kalabahi",-8.2161194,124.5459961,Wulanggitang,Kabupaten Flores Timur,-8.2161194,124.5459961
KODIM-096,KOREM-017,KODAM-05,Kodam IX/Udayana,Korem 161/Wira Sakti,Kodim 1624/Larantuka,"Makodim Kodim 1624/Larantuka, Larantuka",-8.3420432,122.9864836,Larantuka,Kabupaten Flores Timur,-8.3420432,122.9864836
KODIM-097,KOREM-017,KODAM-05,Kodam IX/Udayana,Korem 161/Wira Sakti,Kodim 1625/Bajawa,"Makodim Kodim 1625/Bajawa, Bajawa",-8.7895704,120.9774484,Bajawa,Kabupaten Ngada,-8.7895704,120.9774484
KODIM-098,KOREM-017,KODAM-05,Kodam IX/Udayana,Korem 161/Wira Sakti,Kodim 1627/Rote Ndao,"Makodim Kodim 1627/Rote Ndao, Rote Ndao",-10.7798454,123.0722726,Rote Barat Daya,Kabupaten Rote Ndao,-10.7798454,123.0722726
KODIM-099,KOREM-017,KODAM-05,Kodam IX/Udayana,Korem 161/Wira Sakti,Kodim 1629/Sumba Barat Daya,"Makodim Kodim 1629/Sumba Barat Daya, Sumba Barat Daya",-9.4240646,119.1758835,Loura,Kabupaten Sumba Barat Daya,-9.4240646,119.1758835
KODIM-100,KOREM-017,KODAM-05,Kodam IX/Udayana,Korem 161/Wira Sakti,Kodim 1630/Manggarai Barat,"Makodim Kodim 1630/Manggarai Barat, Manggarai Barat",-8.4988789,119.895437,Macang Pacar,Kabupaten Manggarai Barat,-8.4988789,119.895437
KODIM-101,KOREM-018,KODAM-05,Kodam IX/Udayana,Korem 162/Wira Bhakti,Kodim 1606/Mataram,"Makodim Kodim 1606/Mataram, Mataram",-8.5837249,116.1104583,Mataram,Kota Mataram,-8.5837249,116.1104583
KODIM-102,KOREM-018,KODAM-05,Kodam IX/Udayana,Korem 162/Wira Bhakti,Kodim 1607/Sumbawa Besar,"Makodim Kodim 1607/Sumbawa Besar, Sumbawa Besar",-8.4960134,117.4241575,Sumbawa,Kabupaten Sumbawa,-8.4960134,117.4241575
KODIM-103,KOREM-018,KODAM-05,Kodam IX/Udayana,Korem 162/Wira Bhakti,Kodim 1608/Bima,"Makodim Kodim 1608/Bima, Bima",-8.4614456,118.7439727,Mpunda,Kota Bima,-8.4614456,118.7439727
KODIM-104,KOREM-018,KODAM-05,Kodam IX/Udayana,Korem 162/Wira Bhakti,Kodim 1614/Dompu,"Makodim Kodim 1614/Dompu, Dompu",-8.5333147,118.4656312,Dompu,Kabupaten Dompu,-8.5333147,118.4656312
KODIM-105,KOREM-018,KODAM-05,Kodam IX/Udayana,Korem 162/Wira Bhakti,Kodim 1615/Lombok Timur,"Makodim Kodim 1615/Lombok Timur, Lombok Timur",-8.6516704,116.5313644,Selong,Kabupaten Lombok Timur,-8.6516704,116.5313644
KODIM-106,KOREM-018,KODAM-05,Kodam IX/Udayana,Korem 162/Wira Bhakti,Kodim 1620/Praya,"Makodim Kodim 1620/Praya, Praya",-8.7042193,116.2644461,Praya,Kabupaten Lombok Tengah,-8.7042193,116.2644461
KODIM-107,KOREM-018,KODAM-05,Kodam IX/Udayana,Korem 162/Wira Bhakti,Kodim 1628/Taliwang,"Makodim Kodim 1628/Taliwang, Taliwang",-8.7561561,116.8217347,Taliwang,Kabupaten Sumbawa Barat,-8.7561561,116.8217347
KODIM-108,KOREM-019,KODAM-05,Kodam IX/Udayana,Korem 163/Wira Satya,Kodim 1609/Buleleng,"Makodim Kodim 1609/Buleleng, Buleleng",-8.110877,115.0923886,Buleleng,Kabupaten Buleleng,-8.110877,115.0923886
KODIM-109,KOREM-019,KODAM-05,Kodam IX/Udayana,Korem 163/Wira Satya,Kodim 1610/Klungkung,"Makodim Kodim 1610/Klungkung, Klungkung",-8.5246854,115.401776,Klungkung,Kabupaten Klungkung,-8.5246854,115.401776
KODIM-110,KOREM-019,KODAM-05,Kodam IX/Udayana,Korem 163/Wira Satya,Kodim 1611/Badung,"Makodim Kodim 1611/Badung, Badung",-8.6583965,115.217756,Denpasar Barat,Kota Denpasar,-8.6583965,115.217756
KODIM-111,KOREM-019,KODAM-05,Kodam IX/Udayana,Korem 163/Wira Satya,Kodim 1616/Gianyar,"Makodim Kodim 1616/Gianyar, Gianyar",-8.541517,115.32445,Gianyar,Kabupaten Gianyar,-8.541517,115.32445
KODIM-112,KOREM-019,KODAM-05,Kodam IX/Udayana,Korem 163/Wira Satya,Kodim 1617/Negara,"Makodim Kodim 1617/Negara, Negara",-8.3611196,114.636299,Jembrana,Kabupaten Jembrana,-8.3611196,114.636299
KODIM-113,KOREM-019,KODAM-05,Kodam IX/Udayana,Korem 163/Wira Satya,Kodim 1619/Tabanan,"Makodim Kodim 1619/Tabanan, Tabanan",-8.5375637,115.1351399,Tabanan,Kabupaten Tabanan,-8.5375637,115.1351399
KODIM-114,KOREM-019,KODAM-05,Kodam IX/Udayana,Korem 163/Wira Satya,Kodim 1623/Karangasem,"Makodim Kodim 1623/Karangasem, Karangasem",-8.4501606,115.6070289,Karangasem,Kabupaten Karangasem,-8.4501606,115.6070289
KODIM-115,KOREM-019,KODAM-05,Kodam IX/Udayana,Korem 163/Wira Satya,Kodim 1626/Bangli,"Makodim Kodim 1626/Bangli, Bangli",-8.4655462,115.3524751,Bangli,Kabupaten Bangli,-8.4655462,115.3524751
KODIM-116,KOREM-020,KODAM-06,Kodam Iskandar Muda,Berdiri Sendiri,Kodim 0101/Banda Aceh,"Makodim Kodim 0101/Banda Aceh, Banda Aceh",5.5507907,95.3200962,Baiturrahman,Kota Banda Aceh,5.5507907,95.3200962
KODIM-117,KOREM-021,KODAM-06,Kodam Iskandar Muda,Korem 011/Lilawangsa,Kodim 0102/Pidie,"Makodim Kodim 0102/Pidie, Pidie",5.3668961,95.9588794,Pidie,Kabupaten Pidie,5.3668961,95.9588794
KODIM-118,KOREM-021,KODAM-06,Kodam Iskandar Muda,Korem 011/Lilawangsa,Kodim 0103/Aceh Utara,"Makodim Kodim 0103/Aceh Utara, Aceh Utara",5.17936,97.1506,Banda Sakti,Kota Lhokseumawe,5.17936,97.1506
KODIM-119,KOREM-021,KODAM-06,Kodam Iskandar Muda,Korem 011/Lilawangsa,Kodim 0104/Aceh Timur,"Makodim Kodim 0104/Aceh Timur, Aceh Timur",4.4871958,97.9549069,Langsa Baro,Kota Langsa,4.4871958,97.9549069
KODIM-120,KOREM-021,KODAM-06,Kodam Iskandar Muda,Korem 011/Lilawangsa,Kodim 0106/Aceh Tengah,"Makodim Kodim 0106/Aceh Tengah, Aceh Tengah",4.620028,96.8499555,Laut Tawar,Kabupaten Aceh Tengah,4.620028,96.8499555
KODIM-121,KOREM-021,KODAM-06,Kodam Iskandar Muda,Korem 011/Lilawangsa,Kodim 0108/Aceh Tenggara,"Makodim Kodim 0108/Aceh Tenggara, Aceh Tenggara",3.4855693,97.810891,Babussalam,Kabupaten Aceh Tenggara,3.4855693,97.810891
KODIM-122,KOREM-021,KODAM-06,Kodam Iskandar Muda,Korem 011/Lilawangsa,Kodim 0111/Bireuen,"Makodim Kodim 0111/Bireuen, Bireuen",5.2056395,96.6654546,Jeumpa,Kabupaten Bireuen,5.2056395,96.6654546
KODIM-123,KOREM-021,KODAM-06,Kodam Iskandar Muda,Korem 011/Lilawangsa,Kodim 0113/Gayo Lues,"Makodim Kodim 0113/Gayo Lues, Gayo Lues",3.9569132,97.3504275,Blangkejeren,Kabupaten Gayo Lues,3.9569132,97.3504275
KODIM-124,KOREM-021,KODAM-06,Kodam Iskandar Muda,Korem 011/Lilawangsa,Kodim 0117/Aceh Tamiang,"Makodim Kodim 0117/Aceh Tamiang, Aceh Tamiang",4.2048589,98.0586716,Kejuruan Muda,Kabupaten Aceh Tamiang,4.2048589,98.0586716
KODIM-125,KOREM-021,KODAM-06,Kodam Iskandar Muda,Korem 011/Lilawangsa,Kodim 0119/Bener Meriah,"Makodim Kodim 0119/Bener Meriah, Bener Meriah",4.7221766,96.8287302,Wih Pesam,Kabupaten Bener Meriah,4.7221766,96.8287302
KODIM-126,KOREM-022,KODAM-06,Kodam Iskandar Muda,Korem 012/Teuku Umar,Kodim 0105/Aceh Barat,"Makodim Kodim 0105/Aceh Barat, Aceh Barat",4.1586862,96.1268138,Johan Pahlawan,Kabupaten Aceh Barat,4.1586862,96.1268138
KODIM-127,KOREM-022,KODAM-06,Kodam Iskandar Muda,Korem 012/Teuku Umar,Kodim 0107/Aceh Selatan,"Makodim Kodim 0107/Aceh Selatan, Aceh Selatan",3.2607064,97.1955346,Tapaktuan,Kabupaten Aceh Selatan,3.2607064,97.1955346
KODIM-128,KOREM-022,KODAM-06,Kodam Iskandar Muda,Korem 012/Teuku Umar,Kodim 0109/Aceh Singkil,"Makodim Kodim 0109/Aceh Singkil, Aceh Singkil",2.2819633,97.8970084,Singkil Utara,Kabupaten Aceh Singkil,2.2819633,97.8970084
KODIM-129,KOREM-022,KODAM-06,Kodam Iskandar Muda,Korem 012/Teuku Umar,Kodim 0110/Aceh Barat Daya,"Makodim Kodim 0110/Aceh Barat Daya, Aceh Barat Daya",3.7326819,96.8583059,Blangpidie,Kabupaten Aceh Barat Daya,3.7326819,96.8583059
KODIM-130,KOREM-022,KODAM-06,Kodam Iskandar Muda,Korem 012/Teuku Umar,Kodim 0112/Sabang,"Makodim Kodim 0112/Sabang, Sabang",5.8689543,95.3461415,Sukajaya,Kota Sabang,5.8689543,95.3461415
KODIM-131,KOREM-022,KODAM-06,Kodam Iskandar Muda,Korem 012/Teuku Umar,Kodim 0114/Aceh Jaya,"Makodim Kodim 0114/Aceh Jaya, Aceh Jaya",4.6292863,95.5778022,Krueng Sabee,Kabupaten Aceh Jaya,4.6292863,95.5778022
KODIM-132,KOREM-022,KODAM-06,Kodam Iskandar Muda,Korem 012/Teuku Umar,Kodim 0115/Simeuleu,"Makodim Kodim 0115/Simeuleu, Simeuleu",2.4836766,96.3691363,Simeulue Timur,Kabupaten Simeulue,2.4836766,96.3691363
KODIM-133,KOREM-022,KODAM-06,Kodam Iskandar Muda,Korem 012/Teuku Umar,Kodim 0116/Nagan Raya,"Makodim Kodim 0116/Nagan Raya, Nagan Raya",4.1697214,96.3220468,Suka Makmue,Kabupaten Nagan Raya,4.1697214,96.3220468
KODIM-134,KOREM-022,KODAM-06,Kodam Iskandar Muda,Korem 012/Teuku Umar,Kodim 0118/Subulussalam,"Makodim Kodim 0118/Subulussalam, Subulussalam",2.6228543,98.0359465,Penanggalan,Kota Subulussalam,2.6228543,98.0359465
KODIM-135,KOREM-023,KODAM-07,Kodam Jayakarta,Berdiri Sendiri,Kodim 0501/Jakarta Pusat,"Makodim Kodim 0501/Jakarta Pusat, Jakarta Pusat",-6.1556169,106.8433242,Sawah Besar,Kota Administrasi Jakarta Pusat,-6.1556169,106.8433242
KODIM-136,KOREM-024,KODAM-07,Kodam Jayakarta,Korem 051/Wijayakarta,Kodim 0504/Jakarta Selatan,"Makodim Kodim 0504/Jakarta Selatan, Jakarta Selatan",-6.2568259,106.7781398,Kebayoran Lama,Kota Administrasi Jakarta Selatan,-6.2568259,106.7781398
KODIM-137,KOREM-024,KODAM-07,Kodam Jayakarta,Korem 051/Wijayakarta,Kodim 0505/Jakarta Timur,"Makodim Kodim 0505/Jakarta Timur, Jakarta Timur",-6.2128075,106.9467161,Cakung,Kota Administrasi Jakarta Timur,-6.2128075,106.9467161
KODIM-138,KOREM-024,KODAM-07,Kodam Jayakarta,Korem 051/Wijayakarta,Kodim 0507/Bekasi,"Makodim Kodim 0507/Bekasi, Bekasi",-6.2422202,106.9989694,Bekasi Selatan,Kota Bekasi,-6.2422202,106.9989694
KODIM-139,KOREM-024,KODAM-07,Kodam Jayakarta,Korem 051/Wijayakarta,Kodim 0508/Depok,"Makodim Kodim 0508/Depok, Depok",-6.389172,106.793805,Pancoran Mas,Kota Depok,-6.389172,106.793805
KODIM-140,KOREM-025,KODAM-07,Kodam Jayakarta,Korem 052/Wijayakrama,Kodim 0502/Jakarta Utara,"Makodim Kodim 0502/Jakarta Utara, Jakarta Utara",-6.1360741,106.8916324,Tanjung Priok,Kota Administrasi Jakarta Utara,-6.1360741,106.8916324
KODIM-141,KOREM-025,KODAM-07,Kodam Jayakarta,Korem 052/Wijayakrama,Kodim 0503/Jakarta Barat,"Makodim Kodim 0503/Jakarta Barat, Jakarta Barat",-6.1714797,106.7894178,Grogol Petamburan,Kota Administrasi Jakarta Barat,-6.1714797,106.7894178
KODIM-142,KOREM-025,KODAM-07,Kodam Jayakarta,Korem 052/Wijayakrama,Kodim 0506/Tangerang,"Makodim Kodim 0506/Tangerang, Tangerang",-6.185458,106.6385278,Tangerang,Kota Tangerang,-6.185458,106.6385278
KODIM-143,KOREM-025,KODAM-07,Kodam Jayakarta,Korem 052/Wijayakrama,Kodim 0509/Cikarang,"Makodim Kodim 0509/Cikarang, Cikarang",-6.365892,107.175306,Cikarang Pusat,Kabupaten Bekasi,-6.365892,107.175306
KODIM-144,KOREM-025,KODAM-07,Kodam Jayakarta,Korem 052/Wijayakrama,Kodim 0510/Tigaraksa,"Makodim Kodim 0510/Tigaraksa, Tigaraksa",-6.277271,106.4839566,Sepatan,Kabupaten Tangerang,-6.277271,106.4839566
KODIM-145,KOREM-026,KODAM-08,Kodam V/Brawijaya,Korem 081/Dhirotsaha Jaya,Kodim 0801/Pacitan,"Makodim Kodim 0801/Pacitan, Pacitan",-8.2051166,111.0919566,Pacitan,Kabupaten Pacitan,-8.2051166,111.0919566
KODIM-146,KOREM-026,KODAM-08,Kodam V/Brawijaya,Korem 081/Dhirotsaha Jaya,Kodim 0802/Ponorogo,"Makodim Kodim 0802/Ponorogo, Ponorogo",-7.874518,111.4744185,Ponorogo,Kabupaten Ponorogo,-7.874518,111.4744185
KODIM-147,KOREM-026,KODAM-08,Kodam V/Brawijaya,Korem 081/Dhirotsaha Jaya,Kodim 0803/Madiun,"Makodim Kodim 0803/Madiun, Madiun",-7.6213131,111.5208929,Manguharjo,Kota Madiun,-7.6213131,111.5208929
KODIM-148,KOREM-026,KODAM-08,Kodam V/Brawijaya,Korem 081/Dhirotsaha Jaya,Kodim 0804/Magetan,"Makodim Kodim 0804/Magetan, Magetan",-7.6541133,111.3298578,Magetan,Kabupaten Magetan,-7.6541133,111.3298578
KODIM-149,KOREM-026,KODAM-08,Kodam V/Brawijaya,Korem 081/Dhirotsaha Jaya,Kodim 0805/Ngawi,"Makodim Kodim 0805/Ngawi, Ngawi",-7.404105,111.4461155,Ngawi,Kabupaten Ngawi,-7.404105,111.4461155
KODIM-150,KOREM-026,KODAM-08,Kodam V/Brawijaya,Korem 081/Dhirotsaha Jaya,Kodim 0806/Trenggalek,"Makodim Kodim 0806/Trenggalek, Trenggalek",-8.0560391,111.6895627,Trenggalek,Kabupaten Trenggalek,-8.0560391,111.6895627
KODIM-151,KOREM-026,KODAM-08,Kodam V/Brawijaya,Korem 081/Dhirotsaha Jaya,Kodim 0807/Tulungagung,"Makodim Kodim 0807/Tulungagung, Tulungagung",-8.0636048,111.9022405,Tulungagung,Kabupaten Tulungagung,-8.0636048,111.9022405
KODIM-152,KOREM-026,KODAM-08,Kodam V/Brawijaya,Korem 081/Dhirotsaha Jaya,Kodim 0808/Blitar,"Makodim Kodim 0808/Blitar, Blitar",-8.0995116,112.1696843,Kepanjenkidul,Kota Blitar,-8.0995116,112.1696843
KODIM-153,KOREM-026,KODAM-08,Kodam V/Brawijaya,Korem 081/Dhirotsaha Jaya,Kodim 0810/Nganjuk,"Makodim Kodim 0810/Nganjuk, Nganjuk",-7.5989206,111.9016529,Nganjuk,Kabupaten Nganjuk,-7.5989206,111.9016529
KODIM-154,KOREM-027,KODAM-08,Kodam V/Brawijaya,Korem 082/Citra Panca Yudha Jaya,Kodim 0809/Kediri,"Makodim Kodim 0809/Kediri, Kediri",-7.8142321,112.0310833,Kota,Kota Kediri,-7.8142321,112.0310833
KODIM-155,KOREM-027,KODAM-08,Kodam V/Brawijaya,Korem 082/Citra Panca Yudha Jaya,Kodim 0811/Tuban,"Makodim Kodim 0811/Tuban, Tuban",-6.9001173,112.0470507,Tuban,Kabupaten Tuban,-6.9001173,112.0470507
KODIM-156,KOREM-027,KODAM-08,Kodam V/Brawijaya,Korem 082/Citra Panca Yudha Jaya,Kodim 0812/Lamongan,"Makodim Kodim 0812/Lamongan, Lamongan",-7.114361,112.428094,Deket,Kabupaten Lamongan,-7.114361,112.428094
KODIM-157,KOREM-027,KODAM-08,Kodam V/Brawijaya,Korem 082/Citra Panca Yudha Jaya,Kodim 0813/Bojonegoro,"Makodim Kodim 0813/Bojonegoro, Bojonegoro",-7.1693022,111.8685759,Bojonegoro,Kabupaten Bojonegoro,-7.1693022,111.8685759
KODIM-158,KOREM-027,KODAM-08,Kodam V/Brawijaya,Korem 082/Citra Panca Yudha Jaya,Kodim 0814/Jombang,"Makodim Kodim 0814/Jombang, Jombang",-7.540459,112.2373785,Jombang,Kabupaten Jombang,-7.540459,112.2373785
KODIM-159,KOREM-027,KODAM-08,Kodam V/Brawijaya,Korem 082/Citra Panca Yudha Jaya,Kodim 0815/Mojokerto,"Makodim Kodim 0815/Mojokerto, Mojokerto",-7.4621236,112.4321037,Magersari,Kota Mojokerto,-7.4621236,112.4321037
KODIM-160,KOREM-028,KODAM-08,Kodam V/Brawijaya,Korem 083/Baladhika Jaya,Kodim 0818/Kepanjen,"Makodim Kodim 0818/Kepanjen, Kepanjen",-8.1433549,112.568931,Kepanjen,Kabupaten Malang,-8.1433549,112.568931
KODIM-161,KOREM-028,KODAM-08,Kodam V/Brawijaya,Korem 083/Baladhika Jaya,Kodim 0819/Pasuruan,"Makodim Kodim 0819/Pasuruan, Pasuruan",-7.643877,112.9117908,Bugul Kidul,Kota Pasuruan,-7.643877,112.9117908
KODIM-162,KOREM-028,KODAM-08,Kodam V/Brawijaya,Korem 083/Baladhika Jaya,Kodim 0820/Probolinggo,"Makodim Kodim 0820/Probolinggo, Probolinggo",-7.7543046,113.2149457,Kanigaran,Kota Probolinggo,-7.7543046,113.2149457
KODIM-163,KOREM-028,KODAM-08,Kodam V/Brawijaya,Korem 083/Baladhika Jaya,Kodim 0821/Lumajang,"Makodim Kodim 0821/Lumajang, Lumajang",-8.1336639,113.2243969,Lumajang,Kabupaten Lumajang,-8.1336639,113.2243969
KODIM-164,KOREM-028,KODAM-08,Kodam V/Brawijaya,Korem 083/Baladhika Jaya,Kodim 0822/Bondowoso,"Makodim Kodim 0822/Bondowoso, Bondowoso",-7.8553748,113.93212,Tapen,Kabupaten Bondowoso,-7.8553748,113.93212
KODIM-165,KOREM-028,KODAM-08,Kodam V/Brawijaya,Korem 083/Baladhika Jaya,Kodim 0823/Situbondo,"Makodim Kodim 0823/Situbondo, Situbondo",-7.7076318,114.000848,Situbondo,Kabupaten Situbondo,-7.7076318,114.000848
KODIM-166,KOREM-028,KODAM-08,Kodam V/Brawijaya,Korem 083/Baladhika Jaya,Kodim 0824/Jember,"Makodim Kodim 0824/Jember, Jember",-8.165309,113.7056761,Patrang,Kabupaten Jember,-8.165309,113.7056761
KODIM-167,KOREM-028,KODAM-08,Kodam V/Brawijaya,Korem 083/Baladhika Jaya,Kodim 0825/Banyuwangi,"Makodim Kodim 0825/Banyuwangi, Banyuwangi",-8.2113802,114.3780247,Banyuwangi,Kabupaten Banyuwangi,-8.2113802,114.3780247
KODIM-168,KOREM-028,KODAM-08,Kodam V/Brawijaya,Korem 083/Baladhika Jaya,Kodim 0833/Malang,"Makodim Kodim 0833/Malang, Malang",-7.976801,112.631544,Klojen,Kota Malang,-7.976801,112.631544
KODIM-169,KOREM-029,KODAM-08,Kodam V/Brawijaya,Korem 084/Bhaskara Jaya,Kodim 0816/Sidoarjo,"Makodim Kodim 0816/Sidoarjo, Sidoarjo",-7.44134,112.7363206,Sidoarjo,Kabupaten Sidoarjo,-7.44134,112.7363206
KODIM-170,KOREM-029,KODAM-08,Kodam V/Brawijaya,Korem 084/Bhaskara Jaya,Kodim 0817/Gresik,"Makodim Kodim 0817/Gresik, Gresik",-7.1667248,112.6407211,Gresik,Kabupaten Gresik,-7.1667248,112.6407211
KODIM-171,KOREM-029,KODAM-08,Kodam V/Brawijaya,Korem 084/Bhaskara Jaya,Kodim 0826/Pamekasan,"Makodim Kodim 0826/Pamekasan, Pamekasan",-7.154954,113.4914869,Pademawu,Kabupaten Pamekasan,-7.154954,113.4914869
KODIM-172,KOREM-029,KODAM-08,Kodam V/Brawijaya,Korem 084/Bhaskara Jaya,Kodim 0827/Sumenep,"Makodim Kodim 0827/Sumenep, Sumenep",-7.0092587,113.8599474,Kota Sumenep,Kabupaten Sumenep,-7.0092587,113.8599474
KODIM-173,KOREM-029,KODAM-08,Kodam V/Brawijaya,Korem 084/Bhaskara Jaya,Kodim 0828/Sampang,"Makodim Kodim 0828/Sampang, Sampang",-7.2122423,113.2655514,Sampang,Kabupaten Sampang,-7.2122423,113.2655514
KODIM-174,KOREM-029,KODAM-08,Kodam V/Brawijaya,Korem 084/Bhaskara Jaya,Kodim 0829/Bangkalan,"Makodim Kodim 0829/Bangkalan, Bangkalan",-7.0309216,112.749192,Bangkalan,Kabupaten Bangkalan,-7.0309216,112.749192
KODIM-175,KOREM-029,KODAM-08,Kodam V/Brawijaya,Korem 084/Bhaskara Jaya,Kodim 0830/Surabaya,"Makodim Kodim 0830/Surabaya, Surabaya",-7.2329535,112.724866,Krembangan,Kota Surabaya,-7.2329535,112.724866
KODIM-176,KOREM-030,KODAM-09,Kodam VI/Mulawarman,Berdiri Sendiri,Kodim 0905/Balikpapan,"Makodim Kodim 0905/Balikpapan, Balikpapan",-1.2780184,116.8244193,Balikpapan Kota,Kota Balikpapan,-1.2780184,116.8244193
KODIM-177,KOREM-031,KODAM-09,Kodam VI/Mulawarman,Korem 091/Aji Surya Natakesuma,Kodim 0901/Samarinda,"Makodim Kodim 0901/Samarinda, Samarinda",-0.502355,117.142742,Samarinda Kota,Kota Samarinda,-0.502355,117.142742
KODIM-178,KOREM-031,KODAM-09,Kodam VI/Mulawarman,Korem 091/Aji Surya Natakesuma,Kodim 0902/Berau,"Makodim Kodim 0902/Berau, Berau",2.1513389,117.4856037,Tanjung Redeb,Kabupaten Berau,2.1513389,117.4856037
KODIM-179,KOREM-031,KODAM-09,Kodam VI/Mulawarman,Korem 091/Aji Surya Natakesuma,Kodim 0904/Tanah Grogot,"Makodim Kodim 0904/Tanah Grogot, Tanah Grogot",-1.9109357,116.1931245,Batu Sopang,Kabupaten Paser,-1.9109357,116.1931245
KODIM-180,KOREM-031,KODAM-09,Kodam VI/Mulawarman,Korem 091/Aji Surya Natakesuma,Kodim 0906/Tenggarong,"Makodim Kodim 0906/Tenggarong, Tenggarong",-0.4301167,116.9948392,Tenggarong,Kabupaten Kutai Kartanegara,-0.4301167,116.9948392
KODIM-181,KOREM-031,KODAM-09,Kodam VI/Mulawarman,Korem 091/Aji Surya Natakesuma,Kodim 0908/Bontang,"Makodim Kodim 0908/Bontang, Bontang",0.1399646,117.4907313,Bontang Utara,Kota Bontang,0.1399646,117.4907313
KODIM-182,KOREM-031,KODAM-09,Kodam VI/Mulawarman,Korem 091/Aji Surya Natakesuma,Kodim 0909/Sangatta,"Makodim Kodim 0909/Sangatta, Sangatta",0.5291015,117.6094865,Long Mesangat,Kabupaten Kutai Timur,0.5291015,117.6094865
KODIM-183,KOREM-031,KODAM-09,Kodam VI/Mulawarman,Korem 091/Aji Surya Natakesuma,Kodim 0912/Sendawar,"Makodim Kodim 0912/Sendawar, Sendawar",-0.2271513,115.6966549,Barong Tongkok,Kabupaten Kutai Barat,-0.2271513,115.6966549
KODIM-184,KOREM-031,KODAM-09,Kodam VI/Mulawarman,Korem 091/Aji Surya Natakesuma,Kodim 0913/Penajam Paser Utara,"Makodim Kodim 0913/Penajam Paser Utara, Penajam Paser Utara",-1.3077287,116.7309385,Penajam,Kabupaten Penajam Paser Utara,-1.3077287,116.7309385
KODIM-185,KOREM-031,KODAM-09,Kodam VI/Mulawarman,Korem 091/Aji Surya Natakesuma,Kodim 0915/Mahakam Ulu,"Makodim Kodim 0915/Mahakam Ulu, Mahakam Ulu",0.5240536,115.24,Long Bagun,Kabupaten Mahakam Ulu,0.5240536,115.24
KODIM-186,KOREM-032,KODAM-09,Kodam VI/Mulawarman,Korem 092/Maharajalila,Kodim 0903/Tanjung Selor,"Makodim Kodim 0903/Tanjung Selor, Tanjung Selor",2.8424821,117.3726545,Tanjung Selor,Kabupaten Bulungan,2.8424821,117.3726545
KODIM-187,KOREM-032,KODAM-09,Kodam VI/Mulawarman,Korem 092/Maharajalila,Kodim 0907/Tarakan,"Makodim Kodim 0907/Tarakan, Tarakan",3.3132686,117.6074063,Tarakan Barat,Kota Tarakan,3.3132686,117.6074063
KODIM-188,KOREM-032,KODAM-09,Kodam VI/Mulawarman,Korem 092/Maharajalila,Kodim 0910/Malinau,"Makodim Kodim 0910/Malinau, Malinau",3.5520875,116.6246719,Malinau Kota,Kabupaten Malinau,3.5520875,116.6246719
KODIM-189,KOREM-032,KODAM-09,Kodam VI/Mulawarman,Korem 092/Maharajalila,Kodim 0911/Nunukan,"Makodim Kodim 0911/Nunukan, Nunukan",4.1011929,117.630596,Nunukan,Kabupaten Nunukan,4.1011929,117.630596
KODIM-190,KOREM-032,KODAM-09,Kodam VI/Mulawarman,Korem 092/Maharajalila,Kodim 0914/Tana Tidung,"Makodim Kodim 0914/Tana Tidung, Tana Tidung",3.583144,116.945682,Sesayap,Kabupaten Tana Tidung,3.583144,116.945682
KODIM-191,KOREM-033,KODAM-10,Kodam XII/Tanjungpura,Berdiri Sendiri,Kodim 1207/Pontianak,"Makodim Kodim 1207/Pontianak, Pontianak",-0.0342837,109.3341236,Pontianak Selatan,Kota Pontianak,-0.0342837,109.3341236
KODIM-192,KOREM-034,KODAM-10,Kodam XII/Tanjungpura,Korem 121/Alambhana Wanawai,Kodim 1201/Mempawah,"Makodim Kodim 1201/Mempawah, Mempawah",0.3596963,108.9592632,Mempawah Hilir,Kabupaten Mempawah,0.3596963,108.9592632
KODIM-193,KOREM-034,KODAM-10,Kodam XII/Tanjungpura,Korem 121/Alambhana Wanawai,Kodim 1202/Singkawang,"Makodim Kodim 1202/Singkawang, Singkawang",0.8946958,108.9686926,Singkawang Barat,Kota Singkawang,0.8946958,108.9686926
KODIM-194,KOREM-034,KODAM-10,Kodam XII/Tanjungpura,Korem 121/Alambhana Wanawai,Kodim 1203/Ketapang,"Makodim Kodim 1203/Ketapang, Ketapang",-1.8358571,109.978702,Delta Pawan,Kabupaten Ketapang,-1.8358571,109.978702
KODIM-195,KOREM-034,KODAM-10,Kodam XII/Tanjungpura,Korem 121/Alambhana Wanawai,Kodim 1204/Sanggau,"Makodim Kodim 1204/Sanggau, Sanggau",0.1223239,110.6097544,Kapuas,Kabupaten Sanggau,0.1223239,110.6097544
KODIM-196,KOREM-034,KODAM-10,Kodam XII/Tanjungpura,Korem 121/Alambhana Wanawai,Kodim 1205/Sintang,"Makodim Kodim 1205/Sintang, Sintang",0.0771551,111.4915853,Sintang,Kabupaten Sintang,0.0771551,111.4915853
KODIM-197,KOREM-034,KODAM-10,Kodam XII/Tanjungpura,Korem 121/Alambhana Wanawai,Kodim 1206/Putussibau,"Makodim Kodim 1206/Putussibau, Putussibau",0.8583426,112.9255926,Putussibau Utara,Kabupaten Kapuas Hulu,0.8583426,112.9255926
KODIM-198,KOREM-034,KODAM-10,Kodam XII/Tanjungpura,Korem 121/Alambhana Wanawai,Kodim 1208/Sambas,"Makodim Kodim 1208/Sambas, Sambas",1.358179,109.2959283,Sambas,Kabupaten Sambas,1.358179,109.2959283
KODIM-199,KOREM-034,KODAM-10,Kodam XII/Tanjungpura,Korem 121/Alambhana Wanawai,Kodim 1209/Bengkayang,"Makodim Kodim 1209/Bengkayang, Bengkayang",0.8876007,109.4997719,Bengkayang,Kabupaten Bengkayang,0.8876007,109.4997719
KODIM-200,KOREM-034,KODAM-10,Kodam XII/Tanjungpura,Korem 121/Alambhana Wanawai,Kodim 1210/Landak,"Makodim Kodim 1210/Landak, Landak",0.3889954,109.8548554,Ngabang,Kabupaten Landak,0.3889954,109.8548554
KODIM-201,KOREM-035,KODAM-11,Kodam XIII/Merdeka,Korem 131/Santiago,Kodim 1301/Sangihe,"Makodim Kodim 1301/Sangihe, Sangihe",3.6104771,125.4760615,Tahuna,Kabupaten Kepulauan Sangihe,3.6104771,125.4760615
KODIM-202,KOREM-035,KODAM-11,Kodam XIII/Merdeka,Korem 131/Santiago,Kodim 1302/Minahasa,"Makodim Kodim 1302/Minahasa, Minahasa",1.3152135,124.9115394,Tondano Selatan,Kabupaten Minahasa,1.3152135,124.9115394
KODIM-203,KOREM-035,KODAM-11,Kodam XIII/Merdeka,Korem 131/Santiago,Kodim 1303/Kotamobagu,"Makodim Kodim 1303/Kotamobagu, Kotamobagu",0.7427063,124.3141524,Kotamobagu Barat,Kota Kotamobagu,0.7427063,124.3141524
KODIM-204,KOREM-035,KODAM-11,Kodam XIII/Merdeka,Korem 131/Santiago,Kodim 1309/Kota Manado,"Makodim Kodim 1309/Kota Manado, Kota Manado",1.4482969,124.8389065,Malalayang,Kota Manado,1.4482969,124.8389065
KODIM-205,KOREM-035,KODAM-11,Kodam XIII/Merdeka,Korem 131/Santiago,Kodim 1310/Bitung,"Makodim Kodim 1310/Bitung, Bitung",1.4435005,125.1660876,Madidir,Kota Bitung,1.4435005,125.1660876
KODIM-206,KOREM-035,KODAM-11,Kodam XIII/Merdeka,Korem 131/Santiago,Kodim 1312/Talaud,"Makodim Kodim 1312/Talaud, Talaud",4.0093269,126.6853371,Likupang Barat,Kabupaten Minahasa Utara,4.0093269,126.6853371
KODIM-207,KOREM-036,KODAM-11,Kodam XIII/Merdeka,Korem 133/Nani Wartabone,Kodim 1304/Kota Gorontalo,"Makodim Kodim 1304/Kota Gorontalo, Kota Gorontalo",0.5359739,123.0601518,Kota Selatan,Kota Gorontalo,0.5359739,123.0601518
KODIM-208,KOREM-036,KODAM-11,Kodam XIII/Merdeka,Korem 133/Nani Wartabone,Kodim 1313/Pohuwato,"Makodim Kodim 1313/Pohuwato, Pohuwato",0.456023,121.950158,Marisa,Kabupaten Pohuwato,0.456023,121.950158
KODIM-209,KOREM-036,KODAM-11,Kodam XIII/Merdeka,Korem 133/Nani Wartabone,Kodim 1314/Gorontalo Utara,"Makodim Kodim 1314/Gorontalo Utara, Gorontalo Utara",0.8017062,122.8688016,Kwandang,Kabupaten Gorontalo Utara,0.8017062,122.8688016
KODIM-210,KOREM-036,KODAM-11,Kodam XIII/Merdeka,Korem 133/Nani Wartabone,Kodim 1315/Kabupaten Gorontalo,"Makodim Kodim 1315/Kabupaten Gorontalo, Kabupaten Gorontalo",0.5820304,122.9217697,Tabongo,Kabupaten Gorontalo,0.5820304,122.9217697
KODIM-211,KOREM-036,KODAM-11,Kodam XIII/Merdeka,Korem 133/Nani Wartabone,Kodim 1316/Boalemo,"Makodim Kodim 1316/Boalemo, Boalemo",0.5546155,122.3699103,Tilamuta,Kabupaten Boalemo,0.5546155,122.3699103
KODIM-212,KOREM-037,KODAM-12,Kodam XIV/Hasanuddin,Berdiri Sendiri,Kodim 1408/Makassar,"Makodim Kodim 1408/Makassar, Makassar",-5.152059,119.419342,Mamajang,Kota Makassar,-5.152059,119.419342
KODIM-213,KOREM-038,KODAM-12,Kodam XIV/Hasanuddin,Korem 141/Toddopuli,Kodim 1403/Palopo,"Makodim Kodim 1403/Palopo, Palopo",-2.995626,120.1941834,Wara,Kota Palopo,-2.995626,120.1941834
KODIM-214,KOREM-038,KODAM-12,Kodam XIV/Hasanuddin,Korem 141/Toddopuli,Kodim 1404/Pinrang,"Makodim Kodim 1404/Pinrang, Pinrang",-3.7906211,119.6586885,Patampanua,Kabupaten Pinrang,-3.7906211,119.6586885
KODIM-215,KOREM-038,KODAM-12,Kodam XIV/Hasanuddin,Korem 141/Toddopuli,Kodim 1405/Pare-pare,"Makodim Kodim 1405/Pare-pare, Pare-pare",-4.0008185,119.6471184,Soreang,Kota Parepare,-4.0008185,119.6471184
KODIM-216,KOREM-038,KODAM-12,Kodam XIV/Hasanuddin,Korem 141/Toddopuli,Kodim 1406/Sengkang,"Makodim Kodim 1406/Sengkang, Sengkang",-4.1219792,120.0349691,Tempe,Kabupaten Wajo,-4.1219792,120.0349691
KODIM-217,KOREM-038,KODAM-12,Kodam XIV/Hasanuddin,Korem 141/Toddopuli,Kodim 1407/Watampone,"Makodim Kodim 1407/Watampone, Watampone",-4.5458384,120.3242681,Tanete Riattang,Kabupaten Bone,-4.5458384,120.3242681
KODIM-218,KOREM-038,KODAM-12,Kodam XIV/Hasanuddin,Korem 141/Toddopuli,Kodim 1409/Sungguminasa,"Makodim Kodim 1409/Sungguminasa, Sungguminasa",-5.199122,119.4455732,Somba Opu,Kabupaten Gowa,-5.199122,119.4455732
KODIM-219,KOREM-038,KODAM-12,Kodam XIV/Hasanuddin,Korem 141/Toddopuli,Kodim 1410/Bantaeng,"Makodim Kodim 1410/Bantaeng, Bantaeng",-5.5479198,119.9465978,Bantaeng,Kabupaten Bantaeng,-5.5479198,119.9465978
KODIM-220,KOREM-038,KODAM-12,Kodam XIV/Hasanuddin,Korem 141/Toddopuli,Kodim 1411/Bulukumba,"Makodim Kodim 1411/Bulukumba, Bulukumba",-5.5508361,120.2018365,Bulukumpa,Kabupaten Bulukumba,-5.5508361,120.2018365
KODIM-221,KOREM-038,KODAM-12,Kodam XIV/Hasanuddin,Korem 141/Toddopuli,Kodim 1414/Makale,"Makodim Kodim 1414/Makale, Makale",-2.9757864,119.8958328,Makale,Kabupaten Tana Toraja,-2.9757864,119.8958328
KODIM-222,KOREM-038,KODAM-12,Kodam XIV/Hasanuddin,Korem 141/Toddopuli,Kodim 1415/Selayar,"Makodim Kodim 1415/Selayar, Selayar",-6.112019,120.4642541,Pasimasunggu,Kabupaten Kepulauan Selayar,-6.112019,120.4642541
KODIM-223,KOREM-038,KODAM-12,Kodam XIV/Hasanuddin,Korem 141/Toddopuli,Kodim 1419/Enrekang,"Makodim Kodim 1419/Enrekang, Enrekang",-3.5623182,119.7677605,Alla,Kabupaten Enrekang,-3.5623182,119.7677605
KODIM-224,KOREM-038,KODAM-12,Kodam XIV/Hasanuddin,Korem 141/Toddopuli,Kodim 1420/Sidrap,"Makodim Kodim 1420/Sidrap, Sidrap",-3.9159455,119.7736627,Panca Lautang,Kabupaten Sidenreng Rappang,-3.9159455,119.7736627
KODIM-225,KOREM-038,KODAM-12,Kodam XIV/Hasanuddin,Korem 141/Toddopuli,Kodim 1421/Pangkep,"Makodim Kodim 1421/Pangkep, Pangkep",-4.8377463,119.5513292,Liukang Tangaya,Kabupaten Pangkajene dan Kepulauan,-4.8377463,119.5513292
KODIM-226,KOREM-038,KODAM-12,Kodam XIV/Hasanuddin,Korem 141/Toddopuli,Kodim 1422/Maros,"Makodim Kodim 1422/Maros, Maros",-5.0004809,119.5726375,Turikale,Kabupaten Maros,-5.0004809,119.5726375
KODIM-227,KOREM-038,KODAM-12,Kodam XIV/Hasanuddin,Korem 141/Toddopuli,Kodim 1423/Soppeng,"Makodim Kodim 1423/Soppeng, Soppeng",-4.3374771,119.8873633,Lalabata,Kabupaten Soppeng,-4.3374771,119.8873633
KODIM-228,KOREM-038,KODAM-12,Kodam XIV/Hasanuddin,Korem 141/Toddopuli,Kodim 1424/Sinjai,"Makodim Kodim 1424/Sinjai, Sinjai",-5.1274183,120.2497728,Sinjai Utara,Kabupaten Sinjai,-5.1274183,120.2497728
KODIM-229,KOREM-038,KODAM-12,Kodam XIV/Hasanuddin,Korem 141/Toddopuli,Kodim 1425/Jeneponto,"Makodim Kodim 1425/Jeneponto, Jeneponto",-5.666644,119.7287777,Binamu,Kabupaten Jeneponto,-5.666644,119.7287777
KODIM-230,KOREM-038,KODAM-12,Kodam XIV/Hasanuddin,Korem 141/Toddopuli,Kodim 1426/Takalar,"Makodim Kodim 1426/Takalar, Takalar",-5.4227022,119.4409212,Pattallassang,Kabupaten Takalar,-5.4227022,119.4409212
KODIM-231,KOREM-039,KODAM-12,Kodam XIV/Hasanuddin,Korem 143/Halu Oleo,Kodim 1412/Kolaka,"Makodim Kodim 1412/Kolaka, Kolaka",-4.0657941,121.6195379,Kolaka,Kabupaten Kolaka,-4.0657941,121.6195379
KODIM-232,KOREM-039,KODAM-12,Kodam XIV/Hasanuddin,Korem 143/Halu Oleo,Kodim 1413/Buton,"Makodim Kodim 1413/Buton, Buton",-5.4584857,122.6114968,Wolio,Kota Bau Bau,-5.4584857,122.6114968
KODIM-233,KOREM-039,KODAM-12,Kodam XIV/Hasanuddin,Korem 143/Halu Oleo,Kodim 1416/Muna,"Makodim Kodim 1416/Muna, Muna",-4.8101564,122.7211945,Batalaiworu,Kabupaten Muna,-4.8101564,122.7211945
KODIM-234,KOREM-039,KODAM-12,Kodam XIV/Hasanuddin,Korem 143/Halu Oleo,Kodim 1417/Kendari,"Makodim Kodim 1417/Kendari, Kendari",-3.9618442,122.5282468,Kendari Barat,Kota Kendari,-3.9618442,122.5282468
KODIM-235,KOREM-039,KODAM-12,Kodam XIV/Hasanuddin,Korem 143/Halu Oleo,Kodim 1429/Buton Utara,"Makodim Kodim 1429/Buton Utara, Buton Utara",-4.7639001,123.2008004,Molawe,Kabupaten Konawe Utara,-4.7639001,123.2008004
KODIM-236,KOREM-039,KODAM-12,Kodam XIV/Hasanuddin,Korem 143/Halu Oleo,Kodim 1430/Konawe Utara,"Makodim Kodim 1430/Konawe Utara, Konawe Utara",-3.5519654,122.1344794,Bonegunu,Kabupaten Buton Utara,-3.5519654,122.1344794
KODIM-237,KOREM-039,KODAM-12,Kodam XIV/Hasanuddin,Korem 143/Halu Oleo,Kodim 1431/Bombana,"Makodim Kodim 1431/Bombana, Bombana",-4.6855191,122.0031746,Wangi-Wangi,Kabupaten Wakatobi,-4.6855191,122.0031746
KODIM-238,KOREM-040,KODAM-13,Kodam XIX/Tuanku Tambusai,Korem 031/Wirabima,Kodim 0301/Pekanbaru,"Jl. Jend. A. Yani 49, Pekanbaru 28127",0.5207993,101.4430184,Sukajadi,Kota Pekanbaru,0.5207993,101.4430184
KODIM-239,KOREM-040,KODAM-13,Kodam XIX/Tuanku Tambusai,Korem 031/Wirabima,Kodim 0302/Rengat,"Jl. Suprapto 1, Rengat 29319",-0.3789899,102.5503212,Rengat,Kabupaten Indragiri Hulu,-0.3789899,102.5503212
KODIM-240,KOREM-040,KODAM-13,Kodam XIX/Tuanku Tambusai,Korem 031/Wirabima,Kodim 0303/Bengkalis,"Jl. Sultan Syarif Kasim No. 1, Dumai 28825",1.4865114,102.1367678,Bantan,Kabupaten Bengkalis,1.4865114,102.1367678
KODIM-241,KOREM-040,KODAM-13,Kodam XIX/Tuanku Tambusai,Korem 031/Wirabima,Kodim 0313/Kampar,"Jl. Pang Undan, Bangkinang 28411",0.3349788,101.0186278,Bangkinang,Kabupaten Kampar,0.3349788,101.0186278
KODIM-242,KOREM-040,KODAM-13,Kodam XIX/Tuanku Tambusai,Korem 031/Wirabima,Kodim 0314/Indragiri Hilir,"Jl. Jend. A. Yani No. 99, Tembilahan 29213",-0.3339079,103.144954,Tembilahan Hulu,Kabupaten Indragiri Hilir,-0.3339079,103.144954
KODIM-243,KOREM-040,KODAM-13,Kodam XIX/Tuanku Tambusai,Korem 031/Wirabima,Kodim 0320/Dumai,"Makodim Kodim 0320/Dumai, Dumai",1.6777147,101.4601286,Dumai Timur,Kota Dumai,1.6777147,101.4601286
KODIM-244,KOREM-040,KODAM-13,Kodam XIX/Tuanku Tambusai,Korem 031/Wirabima,Kodim 0321/Rokan Hilir,"Makodim Kodim 0321/Rokan Hilir, Rokan Hilir",2.092384,100.8281244,Bangko,Kabupaten Rokan Hilir,2.092384,100.8281244
KODIM-245,KOREM-040,KODAM-13,Kodam XIX/Tuanku Tambusai,Korem 031/Wirabima,Kodim 0322/Siak,"Makodim Kodim 0322/Siak, Siak",0.8228158,102.0081609,Siak,Kabupaten Siak,0.8228158,102.0081609
KODIM-246,KOREM-041,KODAM-13,Kodam XIX/Tuanku Tambusai,Korem 033/Wira Pratama,Kodim 0315/Tanjung Pinang,"Jl. Thabib No. 6, Tanjung Pinang 29111",0.9130842,104.4774159,Tanjung Pinang Timur,Kota Tanjung Pinang,0.9130842,104.4774159
KODIM-247,KOREM-041,KODAM-13,Kodam XIX/Tuanku Tambusai,Korem 033/Wira Pratama,Kodim 0316/Batam,"Jl. Asrama Kodim, Batam 29458",1.1528536,104.0203356,Batu Ampar,Kota Batam,1.1528536,104.0203356
KODIM-248,KOREM-041,KODAM-13,Kodam XIX/Tuanku Tambusai,Korem 033/Wira Pratama,Kodim 0317/Tanjung Balai Karimun,"Jl. Poros, Tanjung Balai Karimun 29161",1.0359143,103.3789327,Tebing,Kabupaten Karimun,1.0359143,103.3789327
KODIM-249,KOREM-041,KODAM-13,Kodam XIX/Tuanku Tambusai,Korem 033/Wira Pratama,Kodim 0318/Natuna,"Jl. Sukarno Hatta, Ranai, Natuna 29782",3.9228599,108.3303155,Bunguran Timur,Kabupaten Natuna,3.9228599,108.3303155
KODIM-250,KOREM-042,KODAM-14,Kodam XV/Pattimura,Berdiri Sendiri,Kodim 1504/Ambon,"Makodim Kodim 1504/Ambon, Ambon",-3.6927115,128.1836946,Sirimau,Kota Ambon,-3.6927115,128.1836946
KODIM-251,KOREM-043,KODAM-14,Kodam XV/Pattimura,Korem 151/Binaiya,Kodim 1502/Masohi,"Makodim Kodim 1502/Masohi, Masohi",-3.3041426,128.95554,Kota Masohi,Kabupaten Maluku Tengah,-3.3041426,128.95554
KODIM-252,KOREM-043,KODAM-14,Kodam XV/Pattimura,Korem 151/Binaiya,Kodim 1503/Tual,"Makodim Kodim 1503/Tual, Tual",-5.6485501,132.7395657,Kei Kecil,Kabupaten Maluku Tenggara,-5.6485501,132.7395657
KODIM-253,KOREM-043,KODAM-14,Kodam XV/Pattimura,Korem 151/Binaiya,Kodim 1506/Namlea,"Makodim Kodim 1506/Namlea, Namlea",-3.2786954,127.1130762,Waplau,Kabupaten Buru,-3.2786954,127.1130762
KODIM-254,KOREM-043,KODAM-14,Kodam XV/Pattimura,Korem 151/Binaiya,Kodim 1507/Saumlaki,"Makodim Kodim 1507/Saumlaki, Saumlaki",-7.9640847,131.3139283,Tanimbar Selatan,Kabupaten Kepulauan Tanimbar,-7.9640847,131.3139283
KODIM-255,KOREM-043,KODAM-14,Kodam XV/Pattimura,Korem 151/Binaiya,Kodim 1511/Pulau Moa,"Makodim Kodim 1511/Pulau Moa, Pulau Moa",-8.1519719,127.7893505,Moa,Kabupaten Maluku Barat Daya,-8.1519719,127.7893505
KODIM-256,KOREM-043,KODAM-14,Kodam XV/Pattimura,Korem 151/Binaiya,Kodim 1513/Seram Barat,"Makodim Kodim 1513/Seram Barat, Seram Barat",-3.0735531,128.1446429,Seram Barat,Kabupaten Seram Bagian Barat,-3.0735531,128.1446429
KODIM-257,KOREM-044,KODAM-14,Kodam XV/Pattimura,Korem 152/Baabullah,Kodim 1501/Ternate,"Makodim Kodim 1501/Ternate, Ternate",0.7864587,127.3883404,Kota Ternate Tengah,Kota Ternate,0.7864587,127.3883404
KODIM-258,KOREM-044,KODAM-14,Kodam XV/Pattimura,Korem 152/Baabullah,Kodim 1505/Tidore,"Makodim Kodim 1505/Tidore, Tidore",0.6877333,127.4507584,Tidore,Kota Tidore Kepulauan,0.6877333,127.4507584
KODIM-259,KOREM-044,KODAM-14,Kodam XV/Pattimura,Korem 152/Baabullah,Kodim 1508/Tobelo,"Makodim Kodim 1508/Tobelo, Tobelo",1.7327211,127.9925291,Galela,Kabupaten Halmahera Utara,1.7327211,127.9925291
KODIM-260,KOREM-044,KODAM-14,Kodam XV/Pattimura,Korem 152/Baabullah,Kodim 1509/Labuha,"Makodim Kodim 1509/Labuha, Labuha",-0.6492475,127.4958204,Weda Tengah,Kabupaten Halmahera Tengah,-0.6492475,127.4958204
KODIM-261,KOREM-044,KODAM-14,Kodam XV/Pattimura,Korem 152/Baabullah,Kodim 1510/Sanana,"Makodim Kodim 1510/Sanana, Sanana",-2.1165656,125.9602928,Mangoli Timur,Kabupaten Kepulauan Sula,-2.1165656,125.9602928
KODIM-262,KOREM-044,KODAM-14,Kodam XV/Pattimura,Korem 152/Baabullah,Kodim 1512/Weda,"Makodim Kodim 1512/Weda, Weda",0.3471525,127.8597789,Obi,Kabupaten Halmahera Selatan,0.3471525,127.8597789
KODIM-263,KOREM-044,KODAM-14,Kodam XV/Pattimura,Korem 152/Baabullah,Kodim 1514/Morotai,"Makodim Kodim 1514/Morotai, Morotai",2.0551214,128.3229273,Morotai Selatan,Kabupaten Pulau Morotai,2.0551214,128.3229273
KODIM-264,KOREM-045,KODAM-15,Kodam XVII/Cenderawasih,Korem 172/Praja Wira Yakhti,Kodim 1701/Jayapura,"Makodim Kodim 1701/Jayapura, Jayapura",-2.5321127,140.7166326,Jayapura Utara,Kota Jayapura,-2.5321127,140.7166326
KODIM-265,KOREM-045,KODAM-15,Kodam XVII/Cenderawasih,Korem 172/Praja Wira Yakhti,Kodim 1702/Jayawijaya,"Makodim Kodim 1702/Jayawijaya, Jayawijaya",-4.1007429,138.9395227,Wamena,Kabupaten Jayawijaya,-4.1007429,138.9395227
KODIM-266,KOREM-045,KODAM-15,Kodam XVII/Cenderawasih,Korem 172/Praja Wira Yakhti,Kodim 1706/Nduga,"Makodim Kodim 1706/Nduga, Nduga",-4.6049794,138.3863687,Kenyam,Kabupaten Nduga,-4.6049794,138.3863687
KODIM-267,KOREM-045,KODAM-15,Kodam XVII/Cenderawasih,Korem 172/Praja Wira Yakhti,Kodim 1712/Sarmi,"Makodim Kodim 1712/Sarmi, Sarmi",-2.5987665,140.6386115,Sarmi,Kabupaten Sarmi,-2.5987665,140.6386115
KODIM-268,KOREM-045,KODAM-15,Kodam XVII/Cenderawasih,Korem 172/Praja Wira Yakhti,Kodim 1715/Yahukimo,"Makodim Kodim 1715/Yahukimo, Yahukimo",-4.8789297,139.540667,Dekai,Kabupaten Yahukimo,-4.8789297,139.540667
KODIM-269,KOREM-045,KODAM-15,Kodam XVII/Cenderawasih,Korem 172/Praja Wira Yakhti,Kodim 1716/Tolikara,"Makodim Kodim 1716/Tolikara, Tolikara",-3.6835236,138.4784194,Karubaga,Kabupaten Tolikara,-3.6835236,138.4784194
KODIM-270,KOREM-046,KODAM-15,Kodam XVII/Cenderawasih,Korem 173/Praja Vira Braja,Kodim 1703/Deiyai,"Makodim Kodim 1703/Deiyai, Deiyai",-4.034153,136.2981838,Tigi,Kabupaten Deiyai,-4.034153,136.2981838
KODIM-271,KOREM-046,KODAM-15,Kodam XVII/Cenderawasih,Korem 173/Praja Vira Braja,Kodim 1705/Nabire,"Makodim Kodim 1705/Nabire, Nabire",-3.3753498,135.5050107,Siriwo,Kabupaten Nabire,-3.3753498,135.5050107
KODIM-272,KOREM-046,KODAM-15,Kodam XVII/Cenderawasih,Korem 173/Praja Vira Braja,Kodim 1708/Biak,"Makodim Kodim 1708/Biak, Biak",-1.1572623,136.0499239,Biak Kota,Kabupaten Biak Numfor,-1.1572623,136.0499239
KODIM-273,KOREM-046,KODAM-15,Kodam XVII/Cenderawasih,Korem 173/Praja Vira Braja,Kodim 1709/Serui,"Makodim Kodim 1709/Serui, Serui",-1.8756473,136.232889,Yapen Selatan,Kabupaten Kepulauan Yapen,-1.8756473,136.232889
KODIM-274,KOREM-046,KODAM-15,Kodam XVII/Cenderawasih,Korem 173/Praja Vira Braja,Kodim 1710/Mimika,"Makodim Kodim 1710/Mimika, Mimika",-4.45059,136.889,Kuala Kencana,Kabupaten Mimika,-4.45059,136.889
KODIM-275,KOREM-046,KODAM-15,Kodam XVII/Cenderawasih,Korem 173/Praja Vira Braja,Kodim 1713/Lanny Jaya,"Makodim Kodim 1713/Lanny Jaya, Lanny Jaya",-3.9258023,138.4500856,Tiom,Kabupaten Lanny Jaya,-3.9258023,138.4500856
KODIM-276,KOREM-046,KODAM-15,Kodam XVII/Cenderawasih,Korem 173/Praja Vira Braja,Kodim 1714/Puncak Jaya,"Makodim Kodim 1714/Puncak Jaya, Puncak Jaya",-3.7101961,137.9778393,Mulia,Kabupaten Puncak Jaya,-3.7101961,137.9778393
KODIM-277,KOREM-046,KODAM-15,Kodam XVII/Cenderawasih,Korem 173/Praja Vira Braja,Kodim 1717/Puncak,"Makodim Kodim 1717/Puncak, Puncak",-3.9733007,137.6445562,Ilaga,Kabupaten Puncak,-3.9733007,137.6445562
KODIM-278,KOREM-046,KODAM-15,Kodam XVII/Cenderawasih,Korem 173/Praja Vira Braja,Kodim 1718/Intan Jaya,"Makodim Kodim 1718/Intan Jaya, Intan Jaya",-3.7395623,137.0319626,Sugapa,Kabupaten Intan Jaya,-3.7395623,137.0319626
KODIM-279,KOREM-047,KODAM-16,Kodam XVIII/Kasuari,Berdiri Sendiri,Kodim 1801/Manokwari,"Makodim Kodim 1801/Manokwari, Manokwari",-0.8628302,134.0793708,Manokwari Barat,Kabupaten Manokwari,-0.8628302,134.0793708
KODIM-280,KOREM-048,KODAM-16,Kodam XVIII/Kasuari,Korem 181/Praja Vira Tama,Kodim 1802/Sorong,"Makodim Kodim 1802/Sorong, Sorong",-0.8801772,131.2645318,Sorong,Kota Sorong,-0.8801772,131.2645318
KODIM-281,KOREM-048,KODAM-16,Kodam XVIII/Kasuari,Korem 181/Praja Vira Tama,Kodim 1805/Raja Ampat,"Makodim Kodim 1805/Raja Ampat, Raja Ampat",-0.4217405,130.8148295,Waigeo Selatan,Kabupaten Raja Ampat,-0.4217405,130.8148295
KODIM-282,KOREM-048,KODAM-16,Kodam XVIII/Kasuari,Korem 181/Praja Vira Tama,Kodim 1807/Sorong Selatan,"Makodim Kodim 1807/Sorong Selatan, Sorong Selatan",-1.5019633,132.150714,Wayer,Kabupaten Sorong Selatan,-1.5019633,132.150714
KODIM-283,KOREM-048,KODAM-16,Kodam XVIII/Kasuari,Korem 181/Praja Vira Tama,Kodim 1808/Manokwari Selatan,"Makodim Kodim 1808/Manokwari Selatan, Manokwari Selatan",-1.505563,134.1489961,Ransiki,Kabupaten Manokwari Selatan,-1.505563,134.1489961
KODIM-284,KOREM-048,KODAM-16,Kodam XVIII/Kasuari,Korem 181/Praja Vira Tama,Kodim 1809/Maybrat,"Makodim Kodim 1809/Maybrat, Maybrat",-1.2568532,132.5001338,Aifat,Kabupaten Maybrat,-1.2568532,132.5001338
KODIM-285,KOREM-048,KODAM-16,Kodam XVIII/Kasuari,Korem 181/Praja Vira Tama,Kodim 1810/Tambrauw,"Makodim Kodim 1810/Tambrauw, Tambrauw",-0.496052,132.0874738,Sausapor,Kabupaten Tambrauw,-0.496052,132.0874738
KODIM-286,KOREM-049,KODAM-16,Kodam XVIII/Kasuari,Korem 182/Jazira Onim,Kodim 1803/Fakfak,"Makodim Kodim 1803/Fakfak, Fakfak",-2.9290263,132.3037005,Fak-Fak,Kabupaten Fak Fak,-2.9290263,132.3037005
KODIM-287,KOREM-049,KODAM-16,Kodam XVIII/Kasuari,Korem 182/Jazira Onim,Kodim 1804/Kaimana,"Makodim Kodim 1804/Kaimana, Kaimana",-3.6079348,133.7298882,Kaimana,Kabupaten Kaimana,-3.6079348,133.7298882
KODIM-288,KOREM-049,KODAM-16,Kodam XVIII/Kasuari,Korem 182/Jazira Onim,Kodim 1806/Teluk Bintuni,"Makodim Kodim 1806/Teluk Bintuni, Teluk Bintuni",-2.1064825,133.609816,Bintuni,Kabupaten Teluk Bintuni,-2.1064825,133.609816
KODIM-289,KOREM-049,KODAM-16,Kodam XVIII/Kasuari,Korem 182/Jazira Onim,Kodim 1811/Teluk Wondama,"Makodim Kodim 1811/Teluk Wondama, Teluk Wondama",-2.8149925,134.5327669,Wasior,Kabupaten Teluk Wondama,-2.8149925,134.5327669
KODIM-290,KOREM-049,KODAM-16,Kodam XVIII/Kasuari,Korem 182/Jazira Onim,Kodim 1812/Pegunungan Arfak,"Makodim Kodim 1812/Pegunungan Arfak, Pegunungan Arfak",-1.2749458,133.8802828,Anggi,Kabupaten Pegunungan Arfak,-1.2749458,133.8802828
KODIM-291,KOREM-050,KODAM-17,Kodam XX/Tuanku Imam Bonjol,Korem 032/Wirabraja,Kodim 0304/Agam,"Jl. Jend. Sudirman, Bukit Tinggi 26136",-0.3157755,100.3706313,Aur Birugo Tigo Baleh,Kota Bukittinggi,-0.3157755,100.3706313
KODIM-292,KOREM-050,KODAM-17,Kodam XX/Tuanku Imam Bonjol,Korem 032/Wirabraja,Kodim 0305/Lubuk Sikaping,"Jl. Nusantara, Lubuk Sikaping 26300",0.1358442,100.1685593,Lubuk Sikaping,Kabupaten Pasaman,0.1358442,100.1685593
KODIM-293,KOREM-050,KODAM-17,Kodam XX/Tuanku Imam Bonjol,Korem 032/Wirabraja,Kodim 0306/Sarilamak,"Jl. Olah Raga, Payakumbuh 26211",-0.1680835,100.6597745,Harau,Kabupaten Lima Puluh Kota,-0.1680835,100.6597745
KODIM-294,KOREM-050,KODAM-17,Kodam XX/Tuanku Imam Bonjol,Korem 032/Wirabraja,Kodim 0307/Batusangkar,"Jl. Benteng, Batu Sangkar 27211",-0.4770626,100.6231483,Tanjung Emas,Kabupaten Tanah Datar,-0.4770626,100.6231483
KODIM-295,KOREM-050,KODAM-17,Kodam XX/Tuanku Imam Bonjol,Korem 032/Wirabraja,Kodim 0308/Pariaman,"Jl. Imam Bonjol, Pariaman 22514",-0.6265696,100.1625644,Pariaman Selatan,Kota Pariaman,-0.6265696,100.1625644
KODIM-296,KOREM-050,KODAM-17,Kodam XX/Tuanku Imam Bonjol,Korem 032/Wirabraja,Kodim 0309/Solok,"Jl. HM. Yamin, Solok 27322",-0.7890166,100.6471652,Lubuk Sikarah,Kota Solok,-0.7890166,100.6471652
KODIM-297,KOREM-050,KODAM-17,Kodam XX/Tuanku Imam Bonjol,Korem 032/Wirabraja,Kodim 0310/Sawah Lunto,"Jl. Prof. M. Yamin SH., Muara Sijunjung 27511",-0.6652427,100.9450351,Sijunjung,Kabupaten Sijunjung,-0.6652427,100.9450351
KODIM-298,KOREM-050,KODAM-17,Kodam XX/Tuanku Imam Bonjol,Korem 032/Wirabraja,Kodim 0311/Pesisir Selatan,"Jl. Samudra, Painan 25661",-1.344159,100.5784573,IV Jurai,Kabupaten Pesisir Selatan,-1.344159,100.5784573
KODIM-299,KOREM-050,KODAM-17,Kodam XX/Tuanku Imam Bonjol,Korem 032/Wirabraja,Kodim 0312/Padang,"Jl. Thamrin No. 5, Padang 25211",-0.9549416,100.3628962,Padang Selatan,Kota Padang,-0.9549416,100.3628962
KODIM-300,KOREM-050,KODAM-17,Kodam XX/Tuanku Imam Bonjol,Korem 032/Wirabraja,Kodim 0319/Tuapejat,"Makodim Kodim 0319/Tuapejat, Tuapejat",-2.074055,99.603155,Luak,Kabupaten Lima Puluh Kota,-2.074055,99.603155
KODIM-301,KOREM-051,KODAM-17,Kodam XX/Tuanku Imam Bonjol,Korem 042/Garuda Putih,Kodim 0415/Jambi,"Jl. Untung Suropati, Batanghari/Jambi 36136",-1.6198852,103.6115098,Kota Baru,Kota Jambi,-1.6198852,103.6115098
KODIM-302,KOREM-051,KODAM-17,Kodam XX/Tuanku Imam Bonjol,Korem 042/Garuda Putih,Kodim 0416/Bungo,"Jl. Perwira Muara Bungo No. 3, Bungo Tebo/Jambi 37212",-1.4841855,102.1157386,Limbur Lubuk Mengkuang,Kabupaten Bungo,-1.4841855,102.1157386
KODIM-303,KOREM-051,KODAM-17,Kodam XX/Tuanku Imam Bonjol,Korem 042/Garuda Putih,Kodim 0417/Kerinci,"Jl. Jend. Sudirman, Sungai Penuh/Kerinci 35734",-2.0644279,101.3939415,Sungai Bungkal,Kota Sungai Penuh,-2.0644279,101.3939415
KODIM-304,KOREM-051,KODAM-17,Kodam XX/Tuanku Imam Bonjol,Korem 042/Garuda Putih,Kodim 0419/Tanjung Jabung,"Jl. Beringin, Kuala Tungkal 36513",-0.82608,103.4635151,Tungkal Ilir,Kabupaten Tanjung Jabung Barat,-0.82608,103.4635151
KODIM-305,KOREM-051,KODAM-17,Kodam XX/Tuanku Imam Bonjol,Korem 042/Garuda Putih,Kodim 0420/Sarolangun,"Jl. Lintas Sumatra, Sarko 37314",-2.303938,102.686003,Sarolangun,Kabupaten Sarolangun,-2.303938,102.686003
KODIM-306,KOREM-052,KODAM-18,Kodam XXI/Radin Inten,Korem 041/Garuda Emas,Kodim 0407/Bengkulu,"Jl. Gedang, Bengkulu 38225",-3.8203837,102.2965413,Gading Cempaka,Kota Bengkulu,-3.8203837,102.2965413
KODIM-307,KOREM-052,KODAM-18,Kodam XXI/Radin Inten,Korem 041/Garuda Emas,Kodim 0408/Bengkulu Selatan,"Jl. Veteran, Manna 38500",-4.4445777,102.9156663,Kota Manna,Kabupaten Bengkulu Selatan,-4.4445777,102.9156663
KODIM-308,KOREM-052,KODAM-18,Kodam XXI/Radin Inten,Korem 041/Garuda Emas,Kodim 0409/Rejang Lebong,"Jl. Merdeka No. 28, Curup 39100",-3.463468,102.5293294,Curup Tengah,Kabupaten Rejang Lebong,-3.463468,102.5293294
KODIM-309,KOREM-052,KODAM-18,Kodam XXI/Radin Inten,Korem 041/Garuda Emas,Kodim 0423/Bengkulu Utara,"Makodim Kodim 0423/Bengkulu Utara, Bengkulu Utara",-3.449758,102.1529466,Arma Jaya,Kabupaten Bengkulu Utara,-3.449758,102.1529466
KODIM-310,KOREM-052,KODAM-18,Kodam XXI/Radin Inten,Korem 041/Garuda Emas,Kodim 0425/Seluma,"Makodim Kodim 0425/Seluma, Seluma",-4.0665999,102.5709725,Seluma,Kabupaten Seluma,-4.0665999,102.5709725
KODIM-311,KOREM-052,KODAM-18,Kodam XXI/Radin Inten,Korem 041/Garuda Emas,Kodim 0428/Mukomuko,"Makodim Kodim 0428/Mukomuko, Mukomuko",-2.5489803,101.1084833,Kota Mukomuko,Kabupaten Mukomuko,-2.5489803,101.1084833
KODIM-312,KOREM-053,KODAM-18,Kodam XXI/Radin Inten,Korem 043/Garuda Hitam,Kodim 0410/Bandar Lampung,"Jl. Imam Bonjol, Bandar Lampung 35152",-5.3957796,105.2372935,Tanjungkarang Barat,Kota Bandar Lampung,-5.3957796,105.2372935
KODIM-313,KOREM-053,KODAM-18,Kodam XXI/Radin Inten,Korem 043/Garuda Hitam,Kodim 0411/Metro,"Jl. Veteran, Metro/Lampung Timur 34114",-5.1077098,105.2930368,Metro Pusat,Kota Metro,-5.1077098,105.2930368
KODIM-314,KOREM-053,KODAM-18,Kodam XXI/Radin Inten,Korem 043/Garuda Hitam,Kodim 0412/Lampung Utara,"Jl. Raya Kotabumi, Lampung Utara 34513",-4.8507032,104.9130055,Kotabumi Selatan,Kabupaten Lampung Utara,-4.8507032,104.9130055
KODIM-315,KOREM-053,KODAM-18,Kodam XXI/Radin Inten,Korem 043/Garuda Hitam,Kodim 0421/Lampung Selatan,"Jl. Raya Kalianda No. 30, Kalianda 35511",-5.7125606,105.5881814,Kalianda,Kabupaten Lampung Selatan,-5.7125606,105.5881814
KODIM-316,KOREM-053,KODAM-18,Kodam XXI/Radin Inten,Korem 043/Garuda Hitam,Kodim 0422/Lampung Barat,"Jl. Raya Liwa, Lampung Barat 34573",-5.0180181,104.0466109,Balik Bukit,Kabupaten Lampung Barat,-5.0180181,104.0466109
KODIM-317,KOREM-053,KODAM-18,Kodam XXI/Radin Inten,Korem 043/Garuda Hitam,Kodim 0424/Tanggamus,"Jl. Juanda, Kota Agung, Tanggamus 35384",-5.5040116,104.6521853,Kota Agung Timur,Kabupaten Tanggamus,-5.5040116,104.6521853
KODIM-318,KOREM-053,KODAM-18,Kodam XXI/Radin Inten,Korem 043/Garuda Hitam,Kodim 0426/Tulang Bawang,"Makodim Kodim 0426/Tulang Bawang, Tulang Bawang",-4.5173009,105.2309078,Menggala,Kabupaten Tulang Bawang,-4.5173009,105.2309078
KODIM-319,KOREM-053,KODAM-18,Kodam XXI/Radin Inten,Korem 043/Garuda Hitam,Kodim 0427/Way Kanan,"Makodim Kodim 0427/Way Kanan, Way Kanan",-4.5197138,104.508314,Blambangan Umpu,Kabupaten Way Kanan,-4.5197138,104.508314
KODIM-320,KOREM-053,KODAM-18,Kodam XXI/Radin Inten,Korem 043/Garuda Hitam,Kodim 0429/Lampung Timur,"Makodim Kodim 0429/Lampung Timur, Lampung Timur",-5.06331,105.5344459,Sukadana,Kabupaten Lampung Timur,-5.06331,105.5344459
KODIM-321,KOREM-053,KODAM-18,Kodam XXI/Radin Inten,Korem 043/Garuda Hitam,Kodim 0433/Lampung Tengah,"Makodim Kodim 0433/Lampung Tengah, Lampung Tengah",-4.8774324,105.2256345,Terbanggi Besar,Kabupaten Lampung Tengah,-4.8774324,105.2256345
KODIM-322,KOREM-054,KODAM-19,Kodam XXII/Tambun Bungai,Berdiri Sendiri,Kodim 1016/Palangkaraya,"Makodim Kodim 1016/Palangkaraya, Palangkaraya",-2.2096188,113.9346928,Bukit Batu,Kota Palangkaraya,-2.2096188,113.9346928
KODIM-323,KOREM-055,KODAM-19,Kodam XXII/Tambun Bungai,Korem 101/Antasari,Kodim 1001/Amuntai,"Makodim Kodim 1001/Amuntai, Amuntai",-2.4187821,115.2549701,Amuntai Tengah,Kabupaten Hulu Sungai Utara,-2.4187821,115.2549701
KODIM-324,KOREM-055,KODAM-19,Kodam XXII/Tambun Bungai,Korem 101/Antasari,Kodim 1002/Barabai,"Makodim Kodim 1002/Barabai, Barabai",-2.5818691,115.3879593,Barabai,Kabupaten Hulu Sungai Tengah,-2.5818691,115.3879593
KODIM-325,KOREM-055,KODAM-19,Kodam XXII/Tambun Bungai,Korem 101/Antasari,Kodim 1003/Kandangan,"Makodim Kodim 1003/Kandangan, Kandangan",-2.7846606,115.2644743,Kandangan,Kabupaten Hulu Sungai Selatan,-2.7846606,115.2644743
KODIM-326,KOREM-055,KODAM-19,Kodam XXII/Tambun Bungai,Korem 101/Antasari,Kodim 1004/Kotabaru,"Makodim Kodim 1004/Kotabaru, Kotabaru",-3.2490527,116.2172946,Pulaulaut Utara,Kabupaten Kotabaru,-3.2490527,116.2172946
KODIM-327,KOREM-055,KODAM-19,Kodam XXII/Tambun Bungai,Korem 101/Antasari,Kodim 1005/Marabahan,"Makodim Kodim 1005/Marabahan, Marabahan",-2.976383,114.7584017,Tabunganen,Kabupaten Barito Kuala,-2.976383,114.7584017
KODIM-328,KOREM-055,KODAM-19,Kodam XXII/Tambun Bungai,Korem 101/Antasari,Kodim 1006/Martapura,"Makodim Kodim 1006/Martapura, Martapura",-3.4177862,114.8504783,Martapura,Kabupaten Banjar,-3.4177862,114.8504783
KODIM-329,KOREM-055,KODAM-19,Kodam XXII/Tambun Bungai,Korem 101/Antasari,Kodim 1007/Banjarmasin,"Makodim Kodim 1007/Banjarmasin, Banjarmasin",-3.3091481,114.5890173,Banjarmasin Barat,Kota Banjarmasin,-3.3091481,114.5890173
KODIM-330,KOREM-055,KODAM-19,Kodam XXII/Tambun Bungai,Korem 101/Antasari,Kodim 1008/Tanjung,"Makodim Kodim 1008/Tanjung, Tanjung",-2.1618485,115.3837451,Banua Lawas,Kabupaten Tabalong,-2.1618485,115.3837451
KODIM-331,KOREM-055,KODAM-19,Kodam XXII/Tambun Bungai,Korem 101/Antasari,Kodim 1009/Pelaihari,"Makodim Kodim 1009/Pelaihari, Pelaihari",-3.7967564,114.7711073,Pelaihari,Kabupaten Tanah Laut,-3.7967564,114.7711073
KODIM-332,KOREM-055,KODAM-19,Kodam XXII/Tambun Bungai,Korem 101/Antasari,Kodim 1010/Rantau,"Makodim Kodim 1010/Rantau, Rantau",-2.9224654,115.1749537,Bakarangan,Kabupaten Tapin,-2.9224654,115.1749537
KODIM-333,KOREM-055,KODAM-19,Kodam XXII/Tambun Bungai,Korem 101/Antasari,Kodim 1022/Tanah Bumbu,"Makodim Kodim 1022/Tanah Bumbu, Tanah Bumbu",-3.3965342,115.9851669,Kusan Hulu,Kabupaten Tanah Bumbu,-3.3965342,115.9851669
KODIM-334,KOREM-055,KODAM-19,Kodam XXII/Tambun Bungai,Korem 101/Antasari,Kodim 1023/Batulicin,"Makodim Kodim 1023/Batulicin, Batulicin",-2.3808476,115.4602726,Paringin Selatan,Kabupaten Balangan,-2.3808476,115.4602726
KODIM-335,KOREM-056,KODAM-19,Kodam XXII/Tambun Bungai,Korem 102/Panju Panjung,Kodim 1011/Kuala Kapuas,"Makodim Kodim 1011/Kuala Kapuas, Kuala Kapuas",-3.0048916,114.3900293,Selat,Kabupaten Kapuas,-3.0048916,114.3900293
KODIM-336,KOREM-056,KODAM-19,Kodam XXII/Tambun Bungai,Korem 102/Panju Panjung,Kodim 1012/Barito Selatan,"Makodim Kodim 1012/Barito Selatan, Barito Selatan",-1.727371,114.8369247,Dusun Hilir,Kabupaten Barito Selatan,-1.727371,114.8369247
KODIM-337,KOREM-056,KODAM-19,Kodam XXII/Tambun Bungai,Korem 102/Panju Panjung,Kodim 1013/Muara Teweh,"Makodim Kodim 1013/Muara Teweh, Muara Teweh",-0.9574478,114.8961394,Montallat,Kabupaten Barito Utara,-0.9574478,114.8961394
KODIM-338,KOREM-056,KODAM-19,Kodam XXII/Tambun Bungai,Korem 102/Panju Panjung,Kodim 1014/Pangkalan Bun,"Makodim Kodim 1014/Pangkalan Bun, Pangkalan Bun",-2.6740008,111.6340083,Arut Selatan,Kabupaten Kotawaringin Barat,-2.6740008,111.6340083
KODIM-339,KOREM-056,KODAM-19,Kodam XXII/Tambun Bungai,Korem 102/Panju Panjung,Kodim 1015/Sampit,"Makodim Kodim 1015/Sampit, Sampit",-2.5413723,112.9616814,Baamang,Kabupaten Kotawaringin Timur,-2.5413723,112.9616814
KODIM-340,KOREM-056,KODAM-19,Kodam XXII/Tambun Bungai,Korem 102/Panju Panjung,Kodim 1017/Lamandau,"Makodim Kodim 1017/Lamandau, Lamandau",-2.1963209,111.447413,Sukamara,Kabupaten Sukamara,-2.1963209,111.447413
KODIM-341,KOREM-056,KODAM-19,Kodam XXII/Tambun Bungai,Korem 102/Panju Panjung,Kodim 1018/Gunung Mas,"Makodim Kodim 1018/Gunung Mas, Gunung Mas",-1.1159053,113.8502307,Sepang,Kabupaten Gunung Mas,-1.1159053,113.8502307
KODIM-342,KOREM-056,KODAM-19,Kodam XXII/Tambun Bungai,Korem 102/Panju Panjung,Kodim 1019/Katingan,"Makodim Kodim 1019/Katingan, Katingan",-1.8757765,113.4130729,Kamipang,Kabupaten Katingan,-1.8757765,113.4130729
KODIM-343,KOREM-056,KODAM-19,Kodam XXII/Tambun Bungai,Korem 102/Panju Panjung,Kodim 1020/Murung Raya,"Makodim Kodim 1020/Murung Raya, Murung Raya",-0.688475,114.64556,Dusun Timur,Kabupaten Barito Timur,-0.688475,114.64556
KODIM-344,KOREM-057,KODAM-20,Kodam XXIII/Palaka Wira,Korem 132/Tadulako,Kodim 1305/Tolitoli,"Makodim Kodim 1305/Tolitoli, Tolitoli",1.0439072,120.8213784,Baolan,Kabupaten Toli-Toli,1.0439072,120.8213784
KODIM-345,KOREM-057,KODAM-20,Kodam XXIII/Palaka Wira,Korem 132/Tadulako,Kodim 1306/Kota Palu,"Makodim Kodim 1306/Kota Palu, Kota Palu",-0.9008318,119.8896374,Mantikulore,Kota Palu,-0.9008318,119.8896374
KODIM-346,KOREM-057,KODAM-20,Kodam XXIII/Palaka Wira,Korem 132/Tadulako,Kodim 1307/Poso,"Makodim Kodim 1307/Poso, Poso",-1.3846157,120.7563651,Pamona Timur,Kabupaten Poso,-1.3846157,120.7563651
KODIM-347,KOREM-057,KODAM-20,Kodam XXIII/Palaka Wira,Korem 132/Tadulako,Kodim 1308/Luwuk,"Makodim Kodim 1308/Luwuk, Luwuk",-0.9444643,122.799492,Lamala,Kabupaten Banggai,-0.9444643,122.799492
KODIM-348,KOREM-057,KODAM-20,Kodam XXIII/Palaka Wira,Korem 132/Tadulako,Kodim 1311/Morowali,"Makodim Kodim 1311/Morowali, Morowali",-2.4722973,121.9211927,Bungku Tengah,Kabupaten Morowali,-2.4722973,121.9211927
KODIM-349,KOREM-058,KODAM-20,Kodam XXIII/Palaka Wira,Korem 142/Taro Ada Taro Gau,Kodim 1401/Majene,"Makodim Kodim 1401/Majene, Majene",-3.5409635,118.9868706,Banggae Timur,Kabupaten Majene,-3.5409635,118.9868706
KODIM-350,KOREM-058,KODAM-20,Kodam XXIII/Palaka Wira,Korem 142/Taro Ada Taro Gau,Kodim 1402/Polewali,"Makodim Kodim 1402/Polewali, Polewali",-3.4068044,119.3030578,Tabulahan,Kabupaten Mamasa,-3.4068044,119.3030578
KODIM-351,KOREM-058,KODAM-20,Kodam XXIII/Palaka Wira,Korem 142/Taro Ada Taro Gau,Kodim 1418/Mamuju,"Makodim Kodim 1418/Mamuju, Mamuju",-2.6736196,118.8878331,Ulumanda,Kabupaten Majene,-2.6736196,118.8878331
KODIM-352,KOREM-058,KODAM-20,Kodam XXIII/Palaka Wira,Korem 142/Taro Ada Taro Gau,Kodim 1427/Mamuju Utara,"Makodim Kodim 1427/Mamuju Utara, Mamuju Utara",-1.1787997,119.3825899,Pasangkayu,Kabupaten Pasangkayu,-1.1787997,119.3825899
KODIM-353,KOREM-058,KODAM-20,Kodam XXIII/Palaka Wira,Korem 142/Taro Ada Taro Gau,Kodim 1428/Mamasa,"Makodim Kodim 1428/Mamasa, Mamasa",-2.9384272,119.3799919,Tinambung,Kabupaten Polewali Mandar,-2.9384272,119.3799919
KODIM-354,KOREM-059,KODAM-21,Kodam XXIV/Mandala Trikora,Korem 174/Anim Ti Waninggap,Kodim 1704/Mappi,"Makodim Kodim 1704/Mappi, Mappi",-6.5564706,139.3002429,Obaa,Kabupaten Mappi,-6.5564706,139.3002429
KODIM-355,KOREM-059,KODAM-21,Kodam XXIV/Mandala Trikora,Korem 174/Anim Ti Waninggap,Kodim 1707/Merauke,"Makodim Kodim 1707/Merauke, Merauke",-8.49458,140.394,Merauke,Kabupaten Merauke,-8.49458,140.394
KODIM-356,KOREM-059,KODAM-21,Kodam XXIV/Mandala Trikora,Korem 174/Anim Ti Waninggap,Kodim 1711/Boven Digoel,"Makodim Kodim 1711/Boven Digoel, Boven Digoel",-6.0746222,140.3591296,Mandobo,Kabupaten Boven Digoel,-6.0746222,140.3591296
